hotspot_name,hotspot_type,violations,avg_severity,avg_vehicle_impact,recurrence_days,latitude,longitude
1 12TH MAIN ROAD SECTOR 6 HSR LAYOUT BENGALURU SOUTH CITY CORPORATION BENGALURU BANGALORE SOUTH BENGALURU URBAN KARNATAKA 560102 INDIA,ROAD_SEGMENT,1,1.0,1.0,1,12.9155549,77.6368993
1 14TH MAIN ROAD SECTOR 7 HSR LAYOUT BENGALURU SOUTH CITY CORPORATION BENGALURU BANGALORE SOUTH BENGALURU URBAN KARNATAKA 560102 INDIA,ROAD_SEGMENT,6,2.0,1.0,1,12.912079999999998,77.638002
1 7TH C CROSS ROAD MAISTRIPALAYA KORMANGALA EAST BENGALURU SOUTH CITY CORPORATION BENGALURU BANGALORE SOUTH BENGALURU URBAN KARNATAKA 560034 INDIA,ROAD_SEGMENT,1,2.0,3.0,1,12.9326237,77.623365
100 FEET ROAD 3RD BLOCK SIR MV LAYOUT BENGALURU WEST CITY CORPORATION BENGALURU BANGALORE NORTH BENGALURU URBAN KARNATAKA 560056 INDIA,ROAD_SEGMENT,1,5.0,4.0,1,12.9515169,77.4774966
100 FEET ROAD 4TH BLOCK SIR MV LAYOUT BENGALURU WEST CITY CORPORATION BENGALURU BANGALORE NORTH BENGALURU URBAN KARNATAKA 560110 INDIA,ROAD_SEGMENT,1,2.0,1.0,1,12.9515218,77.4773146
100 FEET ROAD ANOTHER SKY BY LIVING WALLS ASHIRWAD COLONY HORAMAVU BENGALURU KARNATAKA PIN560043 INDIA,ROAD_SEGMENT,1,2.0,1.0,1,13.0190763,77.6557568
100 FEET ROAD BM SRI CIRCLE INDIRANAGAR BENGALURU KARNATAKA PIN560038 INDIA,ROAD_SEGMENT,11,1.8181818181818181,1.3636363636363635,5,12.977762437337429,77.64082173656305
100 FEET ROAD DSR SUNSHINE T KRISHNA REDDY LAYOUT BANASWADI BENGALURU KARNATAKA PIN560043 INDIA,ROAD_SEGMENT,1,1.0,1.0,1,13.0182702,77.6540618
100 FEET ROAD FTI QUARTERS YESHWANTHPUR SUBURB STAGE 2 YESHWANTHPUR BENGALURU KARNATAKA PIN560022 INDIA,ROAD_SEGMENT,1,1.0,1.0,1,13.0222566,77.5329141
100 FEET ROAD GOPAL REDDY LAYOUT BANASWADI BENGALURU KARNATAKA PIN560043 INDIA,ROAD_SEGMENT,5,1.0,1.8,5,13.01815446,77.65399894
100 FEET ROAD HRBR LAYOUT 1ST BLOCK BANASWADI BENGALURU NORTH CITY CORPORATION BENGALURU BANGALORE EAST BENGALURU URBAN KARNATAKA 560043 INDIA,ROAD_SEGMENT,1,1.0,1.0,1,13.0181635,77.6540082
100 FEET ROAD INDIRANAGAR BENGALURU CENTRAL CITY CORPORATION BENGALURU BANGALORE EAST BENGALURU URBAN KARNATAKA 560008 INDIA,ROAD_SEGMENT,1,5.0,3.0,1,12.970415,77.6412514
100 FEET ROAD J MUNISWAMY REDDY LAYOUT BANASWADI BENGALURU KARNATAKA PIN560043 INDIA,ROAD_SEGMENT,1,5.0,5.0,1,13.014871,77.6496273
100 FEET ROAD JALAHALLI CROSS JUNCTION PEENYA BENGALURU KARNATAKA PIN560058 INDIA,ROAD_SEGMENT,5,1.4,2.2,4,13.039758353333331,77.51819908666667
100 FEET ROAD JALAHALLI CROSS T DASARAHALLI BENGALURU KARNATAKA PIN560057 INDIA,ROAD_SEGMENT,21,4.190476190476191,3.0952380952380953,3,13.0383905,77.51818905714285
100 FEET ROAD KANTEERAVA STUDIO CIRCLE BENGALURU KARNATAKA PIN560096 INDIA,ROAD_SEGMENT,10,1.9,2.8,8,13.021109319999999,77.52845081000001
100 FEET ROAD KEMPAMMA BADAVANE NANDINI LAYOUT BENGALURU KARNATAKA PIN560096 INDIA,ROAD_SEGMENT,1,2.0,3.0,1,13.0224075,77.5238951
100 FEET ROAD KFC CIRCLE INDIRANAGAR BENGALURU KARNATAKA PIN560038 INDIA,ROAD_SEGMENT,5,1.4,2.2,3,12.978412019999999,77.64028578
100 FEET ROAD NEW BINNAMANGLA INDIRANAGAR BENGALURU KARNATAKA PIN560038 INDIA,ROAD_SEGMENT,19,3.5789473684210527,2.210526315789474,10,12.982778168056035,77.64033097905822
100 FEET ROAD PEDDANNA REDDY LAYOUT ASHIRWAD COLONY HORAMAVU BENGALURU KARNATAKA PIN560043 INDIA,ROAD_SEGMENT,3,1.6666666666666667,1.6666666666666667,3,13.018956051724262,77.65544265260388
100 FEET ROAD PEENYA BENGALURU KARNATAKA PIN560058 INDIA,ROAD_SEGMENT,3,3.3333333333333335,2.3333333333333335,2,13.026546988888889,77.52070647777778
100 FEET ROAD SBM CIRCLE PEENYA BENGALURU KARNATAKA PIN560058 INDIA,ROAD_SEGMENT,3,2.6666666666666665,5.0,3,13.025363733333334,77.52095456666667
100 FEET ROAD SRI KRISHNAPPA LAYOUT INDIRANAGAR BENGALURU KARNATAKA PIN560038 INDIA,ROAD_SEGMENT,21,3.1904761904761907,1.7619047619047619,5,12.979050573879622,77.64085436095377
100 FEET ROAD STAGE 1 INDIRANAGAR BENGALURU KARNATAKA PIN560038 INDIA,ROAD_SEGMENT,37,4.216216216216216,2.324324324324324,11,12.980924577009002,77.64091874736967
100 FEET ROAD TVS CROSS PEENYA BENGALURU KARNATAKA PIN560058 INDIA,ROAD_SEGMENT,10,4.6,3.2,2,13.02787933,77.52005333
100 FEET ROAD VIVEKANAND NAGAR PEENYA BENGALURU KARNATAKA PIN560058 INDIA,ROAD_SEGMENT,13,1.7692307692307692,3.6153846153846154,5,13.039475869230769,77.51846211538461
100 FEET ROAD VK RAMANNA BLOCK NANDINI LAYOUT BENGALURU KARNATAKA PIN560096 INDIA,ROAD_SEGMENT,7,3.5714285714285716,2.2857142857142856,7,13.02167682857143,77.53153294285714
101 17TH CROSS ROAD SECTOR 6 HSR LAYOUT BENGALURU SOUTH CITY CORPORATION BENGALURU BANGALORE SOUTH BENGALURU URBAN KARNATAKA 560102 INDIA,ROAD_SEGMENT,1,1.0,1.0,1,12.9123274,77.6361183
101A 17TH CROSS ROAD SECTOR 6 HSR LAYOUT BENGALURU SOUTH CITY CORPORATION BENGALURU BANGALORE SOUTH BENGALURU URBAN KARNATAKA 560102 INDIA,ROAD_SEGMENT,4,2.0,1.5,2,12.9123397,77.63597192499999
1075 12TH MAIN ROAD MOTAPPANAPALYA INDIRANAGAR JOGPALYA BENGALURU CENTRAL CITY CORPORATION BENGALURU BANGALORE NORTH BENGALURU URBAN KARNATAKA 560008 INDIA,ROAD_SEGMENT,1,1.0,3.0,1,12.9699024,77.6373941
1082 12TH MAIN ROAD MOTAPPANAPALYA INDIRANAGAR JOGPALYA BENGALURU CENTRAL CITY CORPORATION BENGALURU BANGALORE NORTH BENGALURU URBAN KARNATAKA 560008 INDIA,ROAD_SEGMENT,1,1.0,3.0,1,12.9701183,77.6387
10TH A CROSS ROAD ALPINE ECO APARTMENT DODDANEKUNDI BENGALURU KARNATAKA PIN560037 INDIA,ROAD_SEGMENT,1,2.0,1.0,1,12.972605573025506,77.70044993616426
10TH A MAIN ROAD ASHOKA STAMBH CIRCLE JAYANAGAR EAST BENGALURU KARNATAKA PIN560011 INDIA,ROAD_SEGMENT,1,2.0,5.0,1,12.9428517,77.58605
10TH A MAIN ROAD BLOCK C KP AGRAHARA BENGALURU KARNATAKA PIN560023 INDIA,ROAD_SEGMENT,4,1.0,1.0,1,12.975557975000001,77.558469
10TH A MAIN ROAD MALLESHWARAM WEST BENGALURU KARNATAKA PIN560055 INDIA,ROAD_SEGMENT,1,5.0,1.0,1,13.0088912,77.562965
10TH A MAIN ROAD SHRI SATYA SAI CIRCLE JAYANAGAR BENGALURU KARNATAKA PIN560041 INDIA,ROAD_SEGMENT,1,1.0,3.0,1,12.9218508,77.5853739
10TH B MAIN ROAD FREEDOM FIGHTERS COLONY LAGGERE BENGALURU KARNATAKA PIN560058 INDIA,ROAD_SEGMENT,4,2.0,2.75,3,13.006674525,77.5263909
10TH B MAIN ROAD MALLESHWAR LAYOUT LAGGERE BENGALURU KARNATAKA PIN560058 INDIA,ROAD_SEGMENT,1,5.0,3.0,1,13.0078967,77.5259683
10TH B MAIN ROAD MUNISWARA LAYOUT LAGGERE BENGALURU KARNATAKA PIN560058 INDIA,ROAD_SEGMENT,6,4.5,3.6666666666666665,4,13.007659316666667,77.526019
10TH C MAIN ROAD SIDDAPURA CIRCLE MAVALLI BENGALURU KARNATAKA PIN560004 INDIA,ROAD_SEGMENT,21,1.0,1.5714285714285714,4,12.945712104761904,77.58718787142857
10TH CROSS ROAD ACHARYA SRI RAMANUJA CIRCLE MALLESHWARAM BENGALURU KARNATAKA PIN560003 INDIA,ROAD_SEGMENT,29,1.6551724137931034,2.2758620689655173,20,13.001013179310345,77.57131211724138
10TH CROSS ROAD AHMED NAGAR CHANDRA LAYOUT STAGE 1 BENGALURU KARNATAKA PIN560039 INDIA,ROAD_SEGMENT,4,2.75,5.0,3,12.949550775,77.523530775
10TH CROSS ROAD ANNAYAPPA COLONY HAL STAGE 3 NEW THIPPASANDRA BENGALURU KARNATAKA PIN560075 INDIA,ROAD_SEGMENT,3,1.0,1.0,2,12.9720019,77.65393533333334
10TH CROSS ROAD BLOCK E SAHAKARA NAGAR BENGALURU KARNATAKA PIN560092 INDIA,ROAD_SEGMENT,3,2.0,3.0,2,13.0599939,77.5902784
10TH CROSS ROAD BRIGADE SENATE 1 HEBBAL BENGALURU KARNATAKA PIN560024 INDIA,ROAD_SEGMENT,5,2.0,3.0,2,13.04773428,77.57918645999999
10TH CROSS ROAD FAST PRINT JUNCTION BASAVANAGUDI BENGALURU KARNATAKA PIN560004 INDIA,ROAD_SEGMENT,1,2.0,3.0,1,12.9365483,77.5685775
10TH CROSS ROAD FREEDOM FIGHTERS COLONY LAGGERE BENGALURU KARNATAKA PIN560058 INDIA,ROAD_SEGMENT,1,1.0,3.0,1,13.00694,77.5277417
10TH CROSS ROAD GANAPATHINAGAR SAHAKARA NAGAR BENGALURU KARNATAKA PIN560092 INDIA,ROAD_SEGMENT,4,1.75,3.0,3,13.064893025,77.5892559
10TH CROSS ROAD HEMANT NAGAR MARATHAHALLI BENGALURU KARNATAKA PIN560037 INDIA,ROAD_SEGMENT,2,1.0,2.0,2,12.959546549999999,77.70173804999999
10TH CROSS ROAD HOSHALLI PADARAYANAPURA BENGALURU KARNATAKA PIN560026 INDIA,ROAD_SEGMENT,1,2.0,2.0,1,12.964185,77.5500042
10TH CROSS ROAD KADUMALLESHWARA MALLESHWARAM BENGALURU KARNATAKA PIN560003 INDIA,ROAD_SEGMENT,5,1.8,2.8,2,13.000994600000002,77.57032884
10TH CROSS ROAD KEMPEGOWDA LAYOUT LAGGERE BENGALURU KARNATAKA PIN560058 INDIA,ROAD_SEGMENT,1,5.0,3.0,1,12.9989767,77.525095
10TH CROSS ROAD KK LAYOUT NAGARBHAVI STAGE 2 BENGALURU KARNATAKA PIN560072 INDIA,ROAD_SEGMENT,1,5.0,3.0,1,12.969214,77.5060281
10TH CROSS ROAD LIC COLONY JUNCTION JAYANAGAR EAST BENGALURU KARNATAKA PIN560011 INDIA,ROAD_SEGMENT,26,2.0,1.0769230769230769,4,12.931556965384617,77.59251098461539
10TH CROSS ROAD RAMANJANEYA LAYOUT MARATHAHALLI BENGALURU KARNATAKA PIN560037 INDIA,ROAD_SEGMENT,3,1.0,3.3333333333333335,3,12.959489733333333,77.70170223333334
10TH CROSS ROAD RAMESH BABU CIRCLE VIJAYA NAGAR STAGE 2 BENGALURU KARNATAKA PIN560104 INDIA,ROAD_SEGMENT,3,1.0,1.3333333333333333,1,12.9645383,77.5416683
10TH CROSS ROAD SECTOR 1 HSR LAYOUT BENGALURU KARNATAKA PIN560102 INDIA,ROAD_SEGMENT,7,1.1428571428571428,2.142857142857143,7,12.918054357142859,77.65185314285714
10TH CROSS ROAD SJR BROOKLYN APARTMENT KUNDALHALLI BENGALURU KARNATAKA PIN560037 INDIA,ROAD_SEGMENT,6,2.3333333333333335,3.0,3,12.971535433333335,77.71181003333334
10TH CROSS ROAD TEMPLE TREE BOMMANAHALLI BENGALURU KARNATAKA PIN560068 INDIA,ROAD_SEGMENT,1,1.0,2.0,1,12.9037545,77.6264576
10TH CROSS ROAD VENUGOPALA LAYOUT VIDYARANYAPURA BENGALURU KARNATAKA PIN560097 INDIA,ROAD_SEGMENT,3,2.0,1.0,1,13.082735,77.5604633
10TH CROSS ROAD WHISPERING MEADOWS DOLLARS COLONY RMV STAGE 2 BENGALURU KARNATAKA PIN560094 INDIA,ROAD_SEGMENT,13,1.8461538461538463,2.4615384615384617,5,13.047513561538462,77.57217366153847
10TH CROSS ROAD YALAPPA GARDEN MALLESHWARAM BENGALURU KARNATAKA PIN560003 INDIA,ROAD_SEGMENT,1,2.0,3.0,1,13.0010241,77.5722158
10TH MAIN ROAD ANNAYAPPA COLONY HAL STAGE 3 NEW THIPPASANDRA BENGALURU KARNATAKA PIN560075 INDIA,ROAD_SEGMENT,1,1.0,3.0,1,12.9721857,77.6536126
10TH MAIN ROAD BANASHANKARI 1ST STAGE ASHOKA NAGARA BENGALURU WEST CITY CORPORATION BENGALURU BANGALORE NORTH BENGALURU URBAN KARNATAKA 560050 INDIA,ROAD_SEGMENT,1,1.0,3.0,1,12.940137,77.5576986
10TH MAIN ROAD BKL COLONY BOMMANAHALLI BENGALURU KARNATAKA PIN560068 INDIA,ROAD_SEGMENT,23,1.9130434782608696,2.347826086956522,14,12.90586242173913,77.62993545652174
10TH MAIN ROAD BLOCK 4 NANDINI LAYOUT BENGALURU KARNATAKA PIN560096 INDIA,ROAD_SEGMENT,1,5.0,3.0,1,13.01602,77.5314461
10TH MAIN ROAD BLOCK A SUBRAMANYA NAGAR STAGE 2 RAJAJI NAGAR BENGALURU KARNATAKA PIN560010 INDIA,ROAD_SEGMENT,5,1.2,2.4,4,13.007857300000001,77.55735514
10TH MAIN ROAD BLOCK C KP AGRAHARA BENGALURU KARNATAKA PIN560023 INDIA,ROAD_SEGMENT,1,1.0,1.0,1,12.974483,77.5573837
10TH MAIN ROAD DHONDUSA LAYOUT BASAVANAGUDI BENGALURU KARNATAKA PIN560004 INDIA,ROAD_SEGMENT,1,5.0,4.0,1,12.94148676625634,77.56591872645386
10TH MAIN ROAD FILOR HOUSE AECS LAYOUT A BLOCK KUDLU BENGALURU KARNATAKA PIN560068 INDIA,ROAD_SEGMENT,3,2.0,4.0,1,12.882549332795913,77.64955139837603
10TH MAIN ROAD GRACE TOWN HBR LAYOUT BENGALURU KARNATAKA PIN560043 INDIA,ROAD_SEGMENT,1,2.0,1.0,1,13.028872,77.6311181
10TH MAIN ROAD ITI LAYOUT BOMMANAHALLI BENGALURU KARNATAKA PIN560068 INDIA,ROAD_SEGMENT,1,4.0,4.0,1,12.90246982548289,77.64125450219566
10TH MAIN ROAD JUDICIAL OFFICERS HBCS GANGA NAGAR BENGALURU KARNATAKA PIN560032 INDIA,ROAD_SEGMENT,2,1.0,3.0,1,13.0245252,77.5930556
10TH MAIN ROAD KEB QUARTERS STAGE 4 YELAHANKA NEW TOWN BENGALURU KARNATAKA PIN560064 INDIA,ROAD_SEGMENT,1,1.0,3.0,1,13.0981558,77.5696556
10TH MAIN ROAD KEREKODI PALYA BANASHANKARI STAGE 3 BENGALURU KARNATAKA PIN560085 INDIA,ROAD_SEGMENT,1,2.0,1.0,1,12.9295321,77.5351542
10TH MAIN ROAD MOUNT JOY EXTENSION HANUMANTHA NAGAR BENGALURU KARNATAKA PIN560004 INDIA,ROAD_SEGMENT,5,1.4,2.6,3,12.940262780000001,77.56453226
10TH MAIN ROAD NANDINI LAYOUT BENGALURU KARNATAKA PIN560096 INDIA,ROAD_SEGMENT,3,4.0,4.0,2,13.016113533333334,77.53121753333333
10TH MAIN ROAD PALACE ORCHARD APARTMENT RMV EXTENSION SADASHIVA NAGAR BENGALURU KARNATAKA PIN560080 INDIA,ROAD_SEGMENT,1,1.0,3.0,1,13.0115153,77.5793922
10TH MAIN ROAD POORNAPRAGNA HOUSING SOCIETY LAYOUT KODIPUR BENGALURU KARNATAKA PIN560061 INDIA,ROAD_SEGMENT,2,1.0,2.0,1,12.9099655,77.5345151
10TH MAIN ROAD PT COLONY RT NAGAR BENGALURU KARNATAKA PIN560032 INDIA,ROAD_SEGMENT,54,1.5740740740740742,2.4444444444444446,20,13.02434372037037,77.59374112962962
10TH MAIN ROAD SHANTINIKETAN LAYOUT ARAKERE BENGALURU KARNATAKA PIN560076 INDIA,ROAD_SEGMENT,1,1.0,1.0,1,12.8833483,77.60725
10TH MAIN ROAD SHRI SATYA SAI CIRCLE JAYANAGAR BENGALURU KARNATAKA PIN560041 INDIA,ROAD_SEGMENT,1,1.0,3.0,1,12.9216785,77.5847599
10TH MAIN ROAD SRI SRINIVASA NAGAR CIRCLE BANASHANKARI STAGE 1 BENGALURU KARNATAKA PIN560050 INDIA,ROAD_SEGMENT,12,1.8333333333333333,2.1666666666666665,2,12.9380135898476,77.5573163275477
10TH MAIN ROAD ST BED LAYOUT EXTENSION BLOCK 4 KORAMANGALA BENGALURU KARNATAKA PIN560034 INDIA,ROAD_SEGMENT,1,1.0,3.0,1,12.933252,77.6309473
10TH MAIN ROAD THE METROPOLITAN COOPERATIVE HOUSING SOCIETY SECTOR 4 HSR LAYOUT BENGALURU KARNATAKA PIN560102 INDIA,ROAD_SEGMENT,1,1.0,3.0,1,12.9124168,77.6357411
10TH MAIN ROAD VALLIAPPA NAGAR BENGALURU KARNATAKA PIN560001 INDIA,ROAD_SEGMENT,4,2.0,3.0,1,12.99235415,77.592019975
10TH MAIN ROAD VINAYAKA LAYOUT NAGARBHAVI STAGE 2 BENGALURU KARNATAKA PIN560072 INDIA,ROAD_SEGMENT,2,2.0,3.5,2,12.96196865,77.50915180000001
11 1ST A MAIN ROAD SECTOR A YELAHANKA NEW TOWN YELAHANKA SATELLITE TOWN BENGALURU NORTH CITY CORPORATION BENGALURU YELAHANKA TALUKU BENGALURU URBAN KARNATAKA 560064 INDIA,ROAD_SEGMENT,1,2.0,1.0,1,13.0976841,77.5842765
11 EAST PARK ROAD SADASHIVANAGAR SADASHIVA NAGARA BENGALURU WEST CITY CORPORATION BENGALURU BANGALORE NORTH BENGALURU URBAN KARNATAKA 560001 INDIA,ROAD_SEGMENT,2,1.5,2.5,2,13.00841145,77.57069014999999
111 VARTHUR MAIN ROAD GANDHI CIRCLE VARTHUR BENGALURU EAST CITY CORPORATION BENGALURU BANGALORE EAST BENGALURU URBAN KARNATAKA 560087 INDIA,ROAD_SEGMENT,1,2.0,1.0,1,12.9423434,77.7474859
111112 7TH ROAD EPIP ZONE BHARATH AIKYA WARD BENGALURU EAST CITY CORPORATION BENGALURU BANGALORE EAST BENGALURU URBAN KARNATAKA 560066 INDIA,ROAD_SEGMENT,1,2.0,1.0,1,12.9800722,77.7253356
1112 ABHAYADHAMA ROAD AMBEDKAR NAGAR SM KRISHNA WARD BENGALURU EAST CITY CORPORATION BENGALURU BANGALORE EAST BENGALURU URBAN KARNATAKA 560066 INDIA,ROAD_SEGMENT,1,1.0,3.0,1,12.9796387,77.7507959
1126 9TH MAIN ROAD SECTOR 7 HSR LAYOUT BENGALURU SOUTH CITY CORPORATION BENGALURU BANGALORE SOUTH BENGALURU URBAN KARNATAKA 560102 INDIA,ROAD_SEGMENT,1,1.0,2.0,1,12.9119729,77.6352496
1127 9TH MAIN ROAD SECTOR 7 HSR LAYOUT BENGALURU SOUTH CITY CORPORATION BENGALURU BANGALORE SOUTH BENGALURU URBAN KARNATAKA 560102 INDIA,ROAD_SEGMENT,1,1.0,3.0,1,12.9121273,77.6351992
1141 17TH CROSS ROAD SECTOR 7 HSR LAYOUT BENGALURU SOUTH CITY CORPORATION BENGALURU BANGALORE SOUTH BENGALURU URBAN KARNATAKA 560102 INDIA,ROAD_SEGMENT,3,2.0,1.0,1,12.9124168,77.6327532
1160 5TH MAIN ROAD SECTOR 7 HSR LAYOUT BENGALURU SOUTH CITY CORPORATION BENGALURU BANGALORE SOUTH BENGALURU URBAN KARNATAKA 560102 INDIA,ROAD_SEGMENT,1,2.0,1.0,1,12.910677098788264,77.63247569941092
11TH A CROSS ROAD BOMMANAHALLI BENGALURU KARNATAKA PIN560068 INDIA,ROAD_SEGMENT,2,2.0,1.0,2,12.903021299999999,77.62521165
11TH A CROSS ROAD RAMEGOWDA LAYOUT PEENYA BENGALURU KARNATAKA PIN560058 INDIA,ROAD_SEGMENT,2,2.0,2.5,2,13.01418615,77.49210625
11TH CROSS ROAD ACHARYA SRI RAMANUJA CIRCLE MALLESHWARAM BENGALURU KARNATAKA PIN560003 INDIA,ROAD_SEGMENT,76,1.736842105263158,1.6842105263157894,18,13.001898219736843,77.57085121052631
11TH CROSS ROAD BASHYAM CIRCLE SADASHIVA NAGAR BENGALURU KARNATAKA PIN560080 INDIA,ROAD_SEGMENT,2,1.0,3.0,2,13.00744835,77.5783141
11TH CROSS ROAD BYADARAHALLI BENSON TOWN BENGALURU KARNATAKA PIN560046 INDIA,ROAD_SEGMENT,2,2.0,3.0,1,12.99839085,77.60638835
11TH CROSS ROAD CHIKKA BIDDAPPA LAYOUT GARVEBHAVI PALYA BENGALURU KARNATAKA PIN560068 INDIA,ROAD_SEGMENT,4,2.0,2.75,2,12.890500075,77.638467975
11TH CROSS ROAD GANAPATHINAGAR SAHAKARA NAGAR BENGALURU KARNATAKA PIN560092 INDIA,ROAD_SEGMENT,1,2.0,3.0,1,13.0636217,77.5898067
11TH CROSS ROAD GOVIANU JODIDHAR ATLANTIS BYATARAYANAPURA BENGALURU KARNATAKA PIN560092 INDIA,ROAD_SEGMENT,1,2.0,3.0,1,13.063735,77.58969
11TH CROSS ROAD ITI LAYOUT CHANDRA LAYOUT STAGE 1 BENGALURU KARNATAKA PIN560072 INDIA,ROAD_SEGMENT,1,5.0,5.0,1,12.9496297,77.5229762
11TH CROSS ROAD KADUMALLESHWARA MALLESHWARAM BENGALURU KARNATAKA PIN560003 INDIA,ROAD_SEGMENT,24,1.9583333333333333,2.2083333333333335,8,13.001466012500002,77.5696603625
11TH CROSS ROAD KGH LAYOUT GANGA NAGAR BENGALURU KARNATAKA PIN560032 INDIA,ROAD_SEGMENT,1,2.0,3.0,1,13.0273668,77.58612
11TH CROSS ROAD LAXMAIAH BLOCK GANGA NAGAR BENGALURU KARNATAKA PIN560024 INDIA,ROAD_SEGMENT,69,1.5217391304347827,2.2318840579710146,30,13.027626723188407,77.58602637971015
11TH CROSS ROAD MARUTHI EXTENSION VINAYAKA LAYOUT MALLESHWARAM BENGALURU KARNATAKA PIN560003 INDIA,ROAD_SEGMENT,1,2.0,3.0,1,13.001719,77.5636089
11TH CROSS ROAD METRO URBANO MUNI REDDY LAYOUT GARVEBHAVI PALYA BENGALURU KARNATAKA PIN560068 INDIA,ROAD_SEGMENT,30,2.0,2.933333333333333,19,12.89235654,77.63751070666667
11TH CROSS ROAD MUNI REDDY LAYOUT GARVEBHAVI PALYA BENGALURU KARNATAKA PIN560068 INDIA,ROAD_SEGMENT,1,2.0,3.0,1,12.8919693,77.6379582
11TH CROSS ROAD NARAYANPURA WILSON GARDEN BENGALURU KARNATAKA PIN560030 INDIA,ROAD_SEGMENT,2,2.0,1.0,1,12.9493857,77.5990984
11TH CROSS ROAD NETHRAVATHI BLOCK VIJAYA ENCLAVE MULKI SUNDAR RAM SHETTY NAGAR BENGALURU KARNATAKA PIN560076 INDIA,ROAD_SEGMENT,1,1.0,1.0,1,12.8940914,77.6096705
11TH CROSS ROAD OLD PRABHU LAYOUT KUDLU BENGALURU KARNATAKA PIN560068 INDIA,ROAD_SEGMENT,2,2.0,2.0,1,12.886841751563848,77.64882136
11TH CROSS ROAD OSCAR ORCHARDS SAHAKARA NAGAR BENGALURU KARNATAKA PIN560092 INDIA,ROAD_SEGMENT,1,3.0,3.0,1,13.0626783,77.585285
11TH CROSS ROAD OZONE MANAY TECH PARK GARVEBHAVI PALYA BENGALURU KARNATAKA PIN560068 INDIA,ROAD_SEGMENT,27,2.0,3.5185185185185186,11,12.892344744444445,77.63751391851851
11TH CROSS ROAD PARESH APARTMENT KADUMALLESHWARA MALLESHWARAM BENGALURU KARNATAKA PIN560003 INDIA,ROAD_SEGMENT,17,1.8235294117647058,2.176470588235294,3,13.001884276470589,77.56892850588235
11TH CROSS ROAD PHASE 2 RAMESH NAGAR VIMANAPURA BENGALURU KARNATAKA PIN560037 INDIA,ROAD_SEGMENT,3,1.0,3.0,1,12.960769966666668,77.68175280000001
11TH CROSS ROAD PRESTIGE TECHNOSTAR INDUSTRIAL AREA PHASE 1 DODDANEKUNDI BENGALURU KARNATAKA PIN560048 INDIA,ROAD_SEGMENT,1,2.0,2.0,1,12.9719181,77.7114168
11TH CROSS ROAD RAHAMANIYA NAGAR PADARAYANAPURA BENGALURU KARNATAKA PIN560026 INDIA,ROAD_SEGMENT,1,5.0,2.0,1,12.9643399,77.5489606
11TH CROSS ROAD RAJIV GANDHI NAGAR LAGGERE BENGALURU KARNATAKA PIN560058 INDIA,ROAD_SEGMENT,2,1.0,1.0,1,13.0021731,77.5253143
11TH CROSS ROAD RAMEGOWDA LAYOUT PEENYA BENGALURU KARNATAKA PIN560058 INDIA,ROAD_SEGMENT,2,2.0,1.0,1,13.0141019,77.4933278
11TH CROSS ROAD SECTOR 10 LIC COLONY JEEVAN BIMA NAGAR BENGALURU KARNATAKA PIN560075 INDIA,ROAD_SEGMENT,2,1.0,1.0,1,12.9695233,77.6547795
11TH CROSS ROAD SECTOR 4 HSR LAYOUT BENGALURU KARNATAKA PIN560102 INDIA,ROAD_SEGMENT,1,1.0,3.0,1,12.9194567,77.645
11TH CROSS ROAD SJR BROOKLYN APARTMENT KUNDALHALLI BENGALURU KARNATAKA PIN560037 INDIA,ROAD_SEGMENT,4,2.5,2.75,4,12.97180235,77.71154097499999
11TH CROSS ROAD SRI CHAMUNDI TOWERS KRISHNA REDDY INDUSTRIAL AREA GARVEBHAVI PALYA BENGALURU KARNATAKA PIN560068 INDIA,ROAD_SEGMENT,12,2.0,3.6666666666666665,5,12.892657666666667,77.63726873333333
11TH CROSS ROAD SRI GURUKRUPA LAYOUT NAGARBHAVI STAGE 2 BENGALURU KARNATAKA PIN560072 INDIA,ROAD_SEGMENT,1,2.0,1.0,1,12.9608083,77.509515
11TH CROSS ROAD STAGE 2 INDIRANAGAR BENGALURU KARNATAKA PIN560038 INDIA,ROAD_SEGMENT,12,3.25,1.5,2,12.978645066666667,77.63837685833333
11TH CROSS ROAD VIDYAGIRI RESIDENCY VIDYAGIRI LAYOUT CHANDRA LAYOUT STAGE 1 BENGALURU KARNATAKA PIN560072 INDIA,ROAD_SEGMENT,1,2.0,1.0,1,12.9548843,77.5187665
11TH MAIN ROAD ANDRAHALLI BENGALURU WEST CITY CORPORATION BENGALURU BANGALORE NORTH BENGALURU URBAN KARNATAKA 560058 INDIA,ROAD_SEGMENT,1,2.0,2.0,1,13.0141393,77.4927387
11TH MAIN ROAD BLOCK 4T EAST JAYANAGAR BENGALURU KARNATAKA PIN560041 INDIA,ROAD_SEGMENT,1,2.0,1.0,1,12.9217693,77.5857973
11TH MAIN ROAD BOMMANAHALLI INDUSTRIAL AREA BOMMANAHALLI BENGALURU KARNATAKA PIN560068 INDIA,ROAD_SEGMENT,1,2.0,2.0,1,12.9056214,77.6300848
11TH MAIN ROAD FILOR HOUSE AECS LAYOUT A BLOCK KUDLU BENGALURU KARNATAKA PIN560068 INDIA,ROAD_SEGMENT,7,2.0,4.285714285714286,1,12.88244826356238,77.65022277191846
11TH MAIN ROAD GITANJALI CIRCLE MALLESHWARAM WEST BENGALURU KARNATAKA PIN560055 INDIA,ROAD_SEGMENT,2,2.0,3.0,1,13.0064709,77.5623241
11TH MAIN ROAD INDIRANAGAR ESI HOSPITAL JUNCTION INDIRANAGAR BENGALURU KARNATAKA PIN560038 INDIA,ROAD_SEGMENT,10,1.2,2.3,8,12.97027257,77.63636896
11TH MAIN ROAD KASTURI DHAM APARTMENT KADUMALLESHWARA MALLESHWARAM BENGALURU KARNATAKA PIN560003 INDIA,ROAD_SEGMENT,3,2.0,2.6666666666666665,2,13.0001926,77.56413643333333
11TH MAIN ROAD KUDREMUKH COLONY BLOCK 2 KORAMANGALA BENGALURU KARNATAKA PIN560034 INDIA,ROAD_SEGMENT,2,1.0,1.0,1,12.9254417,77.62664
11TH MAIN ROAD MAHARAJA JUNCTION KORAMANGALA BENGALURU KARNATAKA PIN560034 INDIA,ROAD_SEGMENT,1,1.0,3.0,1,12.9338123,77.6300736
11TH MAIN ROAD MARUTHI EXTENSION VINAYAKA LAYOUT MALLESHWARAM BENGALURU KARNATAKA PIN560003 INDIA,ROAD_SEGMENT,6,1.5,1.0,2,13.0006597,77.563989
11TH MAIN ROAD MATHIKERE EXTENSION BENGALURU KARNATAKA PIN560054 INDIA,ROAD_SEGMENT,2,1.0,1.0,1,13.0316317,77.5595833
11TH MAIN ROAD MT LAYOUT MALLESHWARAM BENGALURU KARNATAKA PIN560003 INDIA,ROAD_SEGMENT,2,2.0,1.0,2,13.0047474,77.5624514
11TH MAIN ROAD OLD THIPPASANDRA INDIRANAGAR BENGALURU KARNATAKA PIN560008 INDIA,ROAD_SEGMENT,1,1.0,3.0,1,12.9708581,77.6452004
11TH MAIN ROAD OLD THIPPASANDRA THIPPASANDRA INDIRANAGAR BENGALURU CENTRAL CITY CORPORATION BENGALURU BANGALORE EAST BENGALURU URBAN KARNATAKA 560075 INDIA,ROAD_SEGMENT,2,1.0,3.0,1,12.9710129,77.6471913
11TH MAIN ROAD RAJATH GREENS BLOCK 5 STAGE 1 HBR LAYOUT BENGALURU KARNATAKA PIN560043 INDIA,ROAD_SEGMENT,12,1.1666666666666667,4.0,4,13.035320141666666,77.62450844166666
11TH MAIN ROAD SADASHIVANAGAR JUNCTION ARMANE NAGAR BENGALURU KARNATAKA PIN560094 INDIA,ROAD_SEGMENT,4,1.0,3.0,2,13.014287875,77.57373150000001
11TH MAIN ROAD SBI FLATS BINNYSTON GARDENS MAGADI ROAD AREA BENGALURU KARNATAKA PIN560023 INDIA,ROAD_SEGMENT,12,2.0,3.4166666666666665,5,12.9699255,77.56506019166666
11TH MAIN ROAD THE JUNCTION INDIRANAGAR BENGALURU KARNATAKA PIN560008 INDIA,ROAD_SEGMENT,26,2.923076923076923,2.3076923076923075,17,12.970906082489403,77.64719357626379
11TH MAIN ROAD THE METROPOLITAN COOPERATIVE HOUSING SOCIETY SECTOR 4 HSR LAYOUT BENGALURU KARNATAKA PIN560102 INDIA,ROAD_SEGMENT,2,2.0,2.0,2,12.9123789,77.63601455
11TH MAIN ROAD VINAYAKA LAYOUT NAGARBHAVI STAGE 2 BENGALURU KARNATAKA PIN560072 INDIA,ROAD_SEGMENT,1,2.0,3.0,1,12.9609975,77.5084405
120 11TH CROSS ROAD MALLESWARAM MALLESHWARAM BENGALURU WEST CITY CORPORATION BENGALURU BANGALORE NORTH BENGALURU URBAN KARNATAKA 560001 INDIA,ROAD_SEGMENT,2,3.5,2.5,2,13.0019286,77.5693866
12TH A CROSS ROAD BINNY LAYOUT VIJAYA NAGAR STAGE 2 BENGALURU KARNATAKA PIN560040 INDIA,ROAD_SEGMENT,4,2.0,1.5,1,12.96688715,77.5432853
12TH A CROSS ROAD PREM NAGAR KAMALA NAGAR BENGALURU KARNATAKA PIN560058 INDIA,ROAD_SEGMENT,1,1.0,3.0,1,12.9976767,77.521945
12TH A CROSS ROAD STAGE 2 INDIRANAGAR BENGALURU KARNATAKA PIN560038 INDIA,ROAD_SEGMENT,1,2.0,3.0,1,12.979324,77.637286
12TH A MAIN ROAD GRAPHITE INDIA JUNCTION INDIRANAGAR BENGALURU KARNATAKA PIN560008 INDIA,ROAD_SEGMENT,2,1.0,3.0,1,12.969725,77.6456097
12TH A MAIN ROAD INDIRANAGAR ESI HOSPITAL JUNCTION INDIRANAGAR BENGALURU KARNATAKA PIN560038 INDIA,ROAD_SEGMENT,2,1.0,3.0,2,12.96955335,77.63640085
12TH A MAIN ROAD THE JUNCTION INDIRANAGAR BENGALURU KARNATAKA PIN560008 INDIA,ROAD_SEGMENT,1,1.0,3.0,1,12.9698316,77.6474242
12TH CROSS ROAD BASHYAM CIRCLE SADASHIVA NAGAR BENGALURU KARNATAKA PIN560080 INDIA,ROAD_SEGMENT,2,1.0,3.0,1,13.00721355,77.5786224
12TH CROSS ROAD BDA COMPLEX INDIRANAGAR BENGALURU KARNATAKA PIN560038 INDIA,ROAD_SEGMENT,1,5.0,3.0,1,12.9820234,77.6377262
12TH CROSS ROAD BDA LAYOUT BLOCK 3 CHANDRA LAYOUT STAGE 1 BENGALURU KARNATAKA PIN560072 INDIA,ROAD_SEGMENT,1,5.0,3.0,1,12.9497586,77.5228279
12TH CROSS ROAD DR M MUNIVENKATASWAMY CIRCLE RAJAJI NAGAR BENGALURU KARNATAKA PIN560010 INDIA,ROAD_SEGMENT,1,2.0,1.0,1,13.0058643,77.5422366
12TH CROSS ROAD EMBASSY BUSINESS HUB YELAHANKA BENGALURU KARNATAKA PIN560064 INDIA,ROAD_SEGMENT,1,2.0,1.0,1,13.1082489,77.6040544
12TH CROSS ROAD FREEDOM FIGHTERS COLONY LAGGERE BENGALURU KARNATAKA PIN560058 INDIA,ROAD_SEGMENT,1,1.0,4.0,1,13.0068899,77.5270348
12TH CROSS ROAD HAL LAYOUT BENGALURU KARNATAKA PIN560068 INDIA,ROAD_SEGMENT,3,2.0,3.6666666666666665,2,12.8789155,77.64565046666667
12TH CROSS ROAD IDEAL HOMES TOWNSHIP CIRCLE RAJARAJESHWARI NAGAR BENGALURU KARNATAKA PIN560098 INDIA,ROAD_SEGMENT,3,1.0,2.3333333333333335,1,12.925274433333334,77.51735393333333
12TH CROSS ROAD ITI LAYOUT CHANDRA LAYOUT STAGE 1 BENGALURU KARNATAKA PIN560072 INDIA,ROAD_SEGMENT,1,2.0,5.0,1,12.9496625,77.5229564
12TH CROSS ROAD LAXMAIAH BLOCK GANGA NAGAR BENGALURU KARNATAKA PIN560024 INDIA,ROAD_SEGMENT,30,1.3666666666666667,2.566666666666667,21,13.027868393333334,77.58609616
12TH CROSS ROAD MAHALAKSHMI LAYOUT MAHALAKSHMIPURAM BENGALURU WEST CITY CORPORATION BENGALURU BANGALORE NORTH BENGALURU URBAN KARNATAKA 560086 INDIA,ROAD_SEGMENT,5,1.0,1.4,2,13.00851308,77.54301402
12TH CROSS ROAD MAHALAKSHMI LAYOUT NAGAPURA BENGALURU WEST CITY CORPORATION BENGALURU BANGALORE NORTH BENGALURU URBAN KARNATAKA 560086 INDIA,ROAD_SEGMENT,2,3.5,2.0,2,13.00858405,77.5430961
12TH CROSS ROAD NAGAPURA BENGALURU WEST CITY CORPORATION BENGALURU BANGALORE NORTH BENGALURU URBAN KARNATAKA 560086 INDIA,ROAD_SEGMENT,1,2.0,3.0,1,13.008475,77.5440267
12TH CROSS ROAD NEELADRI MAHAL BENSON TOWN BENGALURU KARNATAKA PIN560046 INDIA,ROAD_SEGMENT,3,2.0,2.3333333333333335,2,13.003115533333334,77.59632273333334
12TH CROSS ROAD NEELADRI NAGAR ELECTRONIC CITY BENGALURU KARNATAKA PIN560100 INDIA,ROAD_SEGMENT,8,1.875,1.0,4,12.841554675,77.647673725
12TH CROSS ROAD PARESH APARTMENT KADUMALLESHWARA MALLESHWARAM BENGALURU KARNATAKA PIN560003 INDIA,ROAD_SEGMENT,5,1.6,2.0,1,13.001358819999998,77.56940488000001
12TH CROSS ROAD RAMESH BABU CIRCLE VIJAYA NAGAR STAGE 2 BENGALURU KARNATAKA PIN560104 INDIA,ROAD_SEGMENT,10,1.0,1.4,2,12.96414939,77.54230932
12TH CROSS ROAD SECTOR 1 HSR LAYOUT BENGALURU KARNATAKA PIN560102 INDIA,ROAD_SEGMENT,3,1.3333333333333333,1.0,3,12.916459466666666,77.65176996666666
12TH CROSS ROAD SRI PATTANAGERE JAYANNA CIRCLE RAJARAJESHWARI NAGAR BENGALURU KARNATAKA PIN560098 INDIA,ROAD_SEGMENT,7,1.0,2.4285714285714284,5,12.926135271428572,77.51575091428572
12TH CROSS ROAD SRI VASAVI GARDEN MAHALAKSHMI LAYOUT BENGALURU KARNATAKA PIN560086 INDIA,ROAD_SEGMENT,14,1.7142857142857142,1.9285714285714286,8,13.008624142857142,77.54321087857143
12TH CROSS ROAD STAGE 2 INDIRANAGAR BENGALURU KARNATAKA PIN560038 INDIA,ROAD_SEGMENT,3,1.0,3.0,2,12.978952266666667,77.6379244
12TH CROSS ROAD SURAJ GANGA SOCRATES RAGHUVANAHALLI BENGALURU KARNATAKA PIN560109 INDIA,ROAD_SEGMENT,1,2.0,3.0,1,12.8756236,77.5423258
12TH CROSS ROAD THIMMAIAH REDDY COLONY JEEVAN BIMA NAGAR BENGALURU KARNATAKA PIN560075 INDIA,ROAD_SEGMENT,2,1.0,3.5,1,12.966872,77.6595176
12TH CROSS ROAD WHISPERING MEADOWS DOLLARS COLONY RMV STAGE 2 BENGALURU KARNATAKA PIN560094 INDIA,ROAD_SEGMENT,4,1.25,2.75,4,13.04728185,77.5715145
12TH MAIN ROAD AECS LAYOUT B BLOCK SINGASANDRA BENGALURU KARNATAKA PIN560068 INDIA,ROAD_SEGMENT,3,2.0,3.0,1,12.880432366335254,77.64064209687794
12TH MAIN ROAD BLOCK 5 STAGE 1 HBR LAYOUT BENGALURU KARNATAKA PIN560043 INDIA,ROAD_SEGMENT,4,1.25,3.5,2,13.0360306,77.625271025
12TH MAIN ROAD GRAPHITE INDIA JUNCTION INDIRANAGAR BENGALURU KARNATAKA PIN560008 INDIA,ROAD_SEGMENT,3,2.0,2.3333333333333335,3,12.970205066666667,77.64457273333333
12TH MAIN ROAD HAL STAGE 2 INDIRANAGAR BENGALURU KARNATAKA PIN560008 INDIA,ROAD_SEGMENT,43,2.883720930232558,2.883720930232558,15,12.970189346511628,77.64328859069768
12TH MAIN ROAD INDIAN AIRLINES STAFF QUARTERS INDIRANAGAR BENGALURU KARNATAKA PIN560008 INDIA,ROAD_SEGMENT,1,1.0,3.0,1,12.9685924,77.6482797
12TH MAIN ROAD INDIRANAGAR ESI HOSPITAL JUNCTION INDIRANAGAR BENGALURU KARNATAKA PIN560038 INDIA,ROAD_SEGMENT,42,1.0476190476190477,2.7857142857142856,23,12.969896533333335,77.63666302142857
12TH MAIN ROAD KITTUR RANI CHENNAMMA CIRCLE INDIRANAGAR BENGALURU KARNATAKA PIN560008 INDIA,ROAD_SEGMENT,178,1.3876404494382022,2.7247191011235956,45,12.970027878085814,77.63857158289811
12TH MAIN ROAD MAHARAJA JUNCTION KORAMANGALA BENGALURU KARNATAKA PIN560034 INDIA,ROAD_SEGMENT,1,1.0,3.0,1,12.9342311,77.6294705
12TH MAIN ROAD NANDINI LAYOUT BENGALURU KARNATAKA PIN560096 INDIA,ROAD_SEGMENT,1,1.0,4.0,1,13.0155558,77.5311017
12TH MAIN ROAD OLD THIPPASANDRA INDIRANAGAR BENGALURU KARNATAKA PIN560008 INDIA,ROAD_SEGMENT,132,2.3181818181818183,2.727272727272727,55,12.970382449508978,77.64520430918947
12TH MAIN ROAD PROSPECT PRINCETON APARTMENT AECS BLOCK C BEGUR BENGALURU KARNATAKA PIN560068 INDIA,ROAD_SEGMENT,2,2.0,2.0,2,12.8789673,77.6381365
12TH MAIN ROAD RAJATH GREENS BLOCK 5 STAGE 1 HBR LAYOUT BENGALURU KARNATAKA PIN560043 INDIA,ROAD_SEGMENT,1,1.0,1.0,1,13.0365335,77.6234765
12TH MAIN ROAD SONY WORLD JUNCTION INDIRANAGAR BENGALURU KARNATAKA PIN560008 INDIA,ROAD_SEGMENT,61,1.7540983606557377,2.4754098360655736,38,12.970180793442623,77.64078428032788
12TH MAIN ROAD THE JUNCTION INDIRANAGAR BENGALURU KARNATAKA PIN560008 INDIA,ROAD_SEGMENT,172,2.9011627906976742,2.5872093023255816,44,12.970410125265273,77.64653738131663
12TH MAIN ROAD THULASI THOTTAM VASANT NAGAR BENGALURU KARNATAKA PIN560001 INDIA,ROAD_SEGMENT,3,1.0,1.6666666666666667,1,12.992416133333334,77.58938963333333
12TH MAIN ROAD VALLIAPPA NAGAR BENGALURU KARNATAKA PIN560001 INDIA,ROAD_SEGMENT,1,2.0,1.0,1,12.9922883,77.5895583
12TH MAIN ROAD WELLINGTON LAYOUT SINGASANDRA BENGALURU KARNATAKA PIN560068 INDIA,ROAD_SEGMENT,9,2.0,3.6666666666666665,6,12.879808722279101,77.640341379002
13TH A MAIN ROAD 1ST STAGE YELAHANKA NEW TOWN BENGALURU KARNATAKA PIN560064 INDIA,ROAD_SEGMENT,1,1.0,1.0,1,13.0988785,77.5764826
13TH CROSS ROAD 2ND BLOCK ASHOK NAGAR BANASHANKARI STAGE 1 BENGALURU KARNATAKA PIN560050 INDIA,ROAD_SEGMENT,2,5.0,3.0,2,12.936077502182107,77.56176348333602
13TH CROSS ROAD BASHYAM CIRCLE SADASHIVA NAGAR BENGALURU KARNATAKA PIN560080 INDIA,ROAD_SEGMENT,39,1.8205128205128205,2.3846153846153846,19,13.006835674358975,77.5789203025641
13TH CROSS ROAD BDA LAYOUT BLOCK 3 CHANDRA LAYOUT STAGE 1 BENGALURU KARNATAKA PIN560072 INDIA,ROAD_SEGMENT,5,4.4,3.8,3,12.950103579999999,77.5225343
13TH CROSS ROAD BLOCK 1 PEENYA BENGALURU KARNATAKA PIN560058 INDIA,ROAD_SEGMENT,1,2.0,2.0,1,13.0348701,77.5298974
13TH CROSS ROAD BLOCK F SAHAKARA NAGAR BENGALURU KARNATAKA PIN560092 INDIA,ROAD_SEGMENT,4,2.0,2.5,2,13.063640525,77.588524225
13TH CROSS ROAD CPWD QUARTERS SECTOR 1 HSR LAYOUT BENGALURU KARNATAKA PIN560102 INDIA,ROAD_SEGMENT,2,1.5,1.0,2,12.91581865,77.6515952
13TH CROSS ROAD HAL LAYOUT BENGALURU KARNATAKA PIN560068 INDIA,ROAD_SEGMENT,2,2.0,3.0,1,12.879792,77.6451465
13TH CROSS ROAD KANAKA NAGAR RT NAGAR POST BENGALURU KARNATAKA PIN560032 INDIA,ROAD_SEGMENT,2,2.0,1.5,1,13.0377251,77.6099868
13TH CROSS ROAD KRISHNA LEGACY APARTMENT BLOCK 1 RT NAGAR BENGALURU KARNATAKA PIN560032 INDIA,ROAD_SEGMENT,1,2.0,3.0,1,13.018265,77.5961033
13TH CROSS ROAD MAHALAKSHMIPURAM NAGAPURA BENGALURU WEST CITY CORPORATION BENGALURU BANGALORE NORTH BENGALURU URBAN KARNATAKA 560086 INDIA,ROAD_SEGMENT,1,2.0,3.0,1,13.0083306,77.5431403
13TH CROSS ROAD MARAGONDANAHALLI ELECTRONIC CITY BANGALORE SOUTH BENGALURU URBAN KARNATAKA 560100 INDIA,ROAD_SEGMENT,2,2.0,3.0,2,12.8416092,77.6471205
13TH CROSS ROAD MARUTHI BLOCK BANASHANKARI STAGE 1 BENGALURU KARNATAKA PIN560050 INDIA,ROAD_SEGMENT,1,1.0,4.0,1,12.9469117,77.5529033
13TH CROSS ROAD NARASIMHASWAMY LAYOUT LAGGERE BENGALURU KARNATAKA PIN560058 INDIA,ROAD_SEGMENT,2,1.0,4.0,1,13.0177017,77.531505
13TH CROSS ROAD NARAYANA NAGAR DODDAKALLASANDRA BENGALURU KARNATAKA PIN560062 INDIA,ROAD_SEGMENT,7,1.0,1.0,1,12.8920474,77.5635884
13TH CROSS ROAD NEELADRI NAGAR ELECTRONIC CITY BENGALURU KARNATAKA PIN560100 INDIA,ROAD_SEGMENT,20,1.75,2.05,12,12.8416201,77.647197585
13TH CROSS ROAD PALACE ORCHARD APARTMENT RMV EXTENSION SADASHIVA NAGAR BENGALURU KARNATAKA PIN560080 INDIA,ROAD_SEGMENT,15,2.1333333333333333,2.6666666666666665,10,13.008923666666668,77.58040096666667
13TH CROSS ROAD PALACE ORCHARD UPPER SADASHIVA NAGAR BENGALURU KARNATAKA PIN560080 INDIA,ROAD_SEGMENT,23,2.4782608695652173,2.739130434782609,13,13.00808417826087,77.5798704826087
13TH CROSS ROAD PARESH APARTMENT KADUMALLESHWARA MALLESHWARAM BENGALURU KARNATAKA PIN560003 INDIA,ROAD_SEGMENT,6,2.0,2.6666666666666665,4,13.003087333333333,77.56933858333333
13TH CROSS ROAD PATANKAR LAYOUT KADUMALLESHWARA MALLESHWARAM BENGALURU KARNATAKA PIN560003 INDIA,ROAD_SEGMENT,1,2.0,2.0,1,13.0030883,77.5692517
13TH CROSS ROAD RAMESH BABU CIRCLE VIJAYA NAGAR STAGE 2 BENGALURU KARNATAKA PIN560104 INDIA,ROAD_SEGMENT,7,1.0,1.2857142857142858,4,12.964303028571427,77.54287684285714
13TH CROSS ROAD SECTOR 4 HSR LAYOUT BENGALURU KARNATAKA PIN560102 INDIA,ROAD_SEGMENT,1,2.0,3.0,1,12.9155833,77.64491
13TH CROSS ROAD SECTOR 6 HSR LAYOUT BENGALURU SOUTH CITY CORPORATION BENGALURU BANGALORE SOUTH BENGALURU URBAN KARNATAKA 560102 INDIA,ROAD_SEGMENT,1,1.0,1.0,1,12.9156468,77.6379278
13TH CROSS ROAD STAGE 2 INDIRANAGAR BENGALURU KARNATAKA PIN560038 INDIA,ROAD_SEGMENT,2,2.5,1.0,2,12.978526,77.6362054
13TH CROSS ROAD STAGE 2 PEENYA BENGALURU KARNATAKA PIN560058 INDIA,ROAD_SEGMENT,4,2.0,3.25,1,13.0139214,77.4919489
13TH CROSS ROAD SUMUKHA MAHALAKSHMIPURAM BENGALURU KARNATAKA PIN560086 INDIA,ROAD_SEGMENT,3,2.0,2.3333333333333335,3,13.008338333333334,77.54313376666666
13TH CROSS ROAD TEACHERS COLONY KORAMANGALA BENGALURU KARNATAKA PIN560034 INDIA,ROAD_SEGMENT,1,1.0,3.0,1,12.9162824,77.6323749
13TH CROSS ROAD ZED ENCLAVE HAL LAYOUT BENGALURU KARNATAKA PIN560068 INDIA,ROAD_SEGMENT,4,2.0,3.0,1,12.8798847,77.6451798
13TH MAIN ROAD BLOCK A SUBRAMANYA NAGAR STAGE 2 RAJAJI NAGAR BENGALURU KARNATAKA PIN560010 INDIA,ROAD_SEGMENT,1,2.0,3.0,1,13.0065419,77.5582279
13TH MAIN ROAD BLOCK B SAHAKARA NAGAR BENGALURU KARNATAKA PIN560092 INDIA,ROAD_SEGMENT,4,2.0,1.0,1,13.0592958,77.5927323
13TH MAIN ROAD BLOCK D SAHAKARA NAGAR BENGALURU KARNATAKA PIN560092 INDIA,ROAD_SEGMENT,8,2.125,2.875,7,13.061105975,77.5877476
13TH MAIN ROAD BLOCK E SAHAKARA NAGAR BENGALURU KARNATAKA PIN560092 INDIA,ROAD_SEGMENT,6,2.0,3.3333333333333335,5,13.059223816666666,77.59021721666666
13TH MAIN ROAD DEFENCE LAYOUT RAJIV GANDHI NAGAR BENGALURU NORTH CITY CORPORATION BENGALURU YELAHANKA TALUKU BENGALURU URBAN KARNATAKA 560092 INDIA,ROAD_SEGMENT,3,1.3333333333333333,3.6666666666666665,3,13.058458000000002,77.59147606666666
13TH MAIN ROAD DOOPANAHALLI INDIRANAGAR BENGALURU KARNATAKA PIN560008 INDIA,ROAD_SEGMENT,2,1.5,3.0,2,12.968488149999999,77.64101819999999
13TH MAIN ROAD ESTEEM GARDENIA SAHAKARA NAGAR BENGALURU KARNATAKA PIN560092 INDIA,ROAD_SEGMENT,39,1.6666666666666667,3.1025641025641026,24,13.058569955885773,77.59137433142193
13TH MAIN ROAD GRAPHITE INDIA JUNCTION INDIRANAGAR BENGALURU KARNATAKA PIN560008 INDIA,ROAD_SEGMENT,4,2.0,3.0,3,12.96869705,77.64552925000001
13TH MAIN ROAD HAL STAGE 2 INDIRANAGAR BENGALURU KARNATAKA PIN560008 INDIA,ROAD_SEGMENT,5,1.2,1.8,4,12.96846008,77.64164886
13TH MAIN ROAD INDIAN AIRLINES STAFF QUARTERS INDIRANAGAR BENGALURU KARNATAKA PIN560008 INDIA,ROAD_SEGMENT,3,1.0,3.0,2,12.968788786263021,77.64761688666667
13TH MAIN ROAD KODIGEHALLI GATE JUNCTION BYATARAYANAPURA BENGALURU KARNATAKA PIN560092 INDIA,ROAD_SEGMENT,11,1.1818181818181819,3.1818181818181817,9,13.058231651957412,77.59304960039306
13TH MAIN ROAD NANDISHWARA LAYOUT GARVEBHAVI PALYA BENGALURU KARNATAKA PIN560068 INDIA,ROAD_SEGMENT,11,2.0,2.909090909090909,2,12.891842672727273,77.63202969999999
13TH MAIN ROAD OSCAR ORCHARDS SAHAKARA NAGAR BENGALURU KARNATAKA PIN560092 INDIA,ROAD_SEGMENT,3,2.3333333333333335,3.3333333333333335,1,13.062936633333335,77.5852788
13TH MAIN ROAD SAHAKARANAGARA RAJIV GANDHI NAGAR BENGALURU NORTH CITY CORPORATION BENGALURU YELAHANKA TALUKU BENGALURU URBAN KARNATAKA 560092 INDIA,ROAD_SEGMENT,1,1.0,3.0,1,13.0581333,77.5915867
13TH MAIN ROAD SECTOR 5 HSR LAYOUT BENGALURU KARNATAKA PIN560102 INDIA,ROAD_SEGMENT,2,1.0,2.0,2,12.916125000000001,77.63782305000001
13TH MAIN ROAD THE METROPOLITAN COOPERATIVE HOUSING SOCIETY SECTOR 4 HSR LAYOUT BENGALURU KARNATAKA PIN560102 INDIA,ROAD_SEGMENT,73,1.3150684931506849,1.7397260273972603,25,12.912989591780823,77.6381096849315
13TH MAIN ROAD THULASI THOTTAM VASANT NAGAR BENGALURU KARNATAKA PIN560001 INDIA,ROAD_SEGMENT,12,2.1666666666666665,1.0,5,12.992053033333333,77.58938589166667
13TH MAIN ROAD VALLIAPPA NAGAR BENGALURU KARNATAKA PIN560001 INDIA,ROAD_SEGMENT,34,2.088235294117647,1.0,8,12.991990876470588,77.58987104117648
13TH MAIN ROAD YELAHANKA NEW TOWN BENGALURU KARNATAKA PIN560064 INDIA,ROAD_SEGMENT,1,1.0,4.0,1,13.0995627,77.578605
14 19TH MAIN ROAD AGARA SECTOR 1 HSR LAYOUT BENGALURU SOUTH CITY CORPORATION BENGALURU BANGALORE SOUTH BENGALURU URBAN KARNATAKA 560102 INDIA,ROAD_SEGMENT,1,1.0,3.0,1,12.9195496,77.6449524
141 MARGOSA ROAD MALLESWARAM MALLESHWARAM BENGALURU WEST CITY CORPORATION BENGALURU BANGALORE NORTH BENGALURU URBAN KARNATAKA 560001 INDIA,ROAD_SEGMENT,1,1.0,2.0,1,12.9993981,77.5693919
146 17TH CROSS ROAD SECTOR 6 HSR LAYOUT BENGALURU SOUTH CITY CORPORATION BENGALURU BANGALORE SOUTH BENGALURU URBAN KARNATAKA 560102 INDIA,ROAD_SEGMENT,3,2.0,1.6666666666666667,2,12.912356566666666,77.6356688
147 17TH CROSS ROAD SECTOR 6 HSR LAYOUT BENGALURU SOUTH CITY CORPORATION BENGALURU BANGALORE SOUTH BENGALURU URBAN KARNATAKA 560102 INDIA,ROAD_SEGMENT,3,1.0,1.6666666666666667,3,12.912412766666668,77.63554263333333
148 17TH CROSS ROAD SECTOR 6 HSR LAYOUT BENGALURU SOUTH CITY CORPORATION BENGALURU BANGALORE SOUTH BENGALURU URBAN KARNATAKA 560102 INDIA,ROAD_SEGMENT,2,1.0,1.0,2,12.9123945,77.63528885
149 9TH MAIN ROAD SECTOR 6 HSR LAYOUT BENGALURU SOUTH CITY CORPORATION BENGALURU BANGALORE SOUTH BENGALURU URBAN KARNATAKA 560102 INDIA,ROAD_SEGMENT,1,1.0,3.0,1,12.9126167,77.6353434
14TH A MAIN ROAD ESTEEM GARDENIA SAHAKARA NAGAR BENGALURU KARNATAKA PIN560092 INDIA,ROAD_SEGMENT,6,1.3333333333333333,3.0,5,13.058928071972558,77.59299807899018
14TH A MAIN ROAD KODIGEHALLI GATE JUNCTION BYATARAYANAPURA BENGALURU KARNATAKA PIN560092 INDIA,ROAD_SEGMENT,2,1.0,3.0,2,13.0588065,77.59321685
14TH B CROSS ROAD SECTOR 6 HSR LAYOUT BENGALURU KARNATAKA PIN560102 INDIA,ROAD_SEGMENT,2,1.5,2.0,2,12.9145618,77.633846
14TH CROSS ROAD BDA LAYOUT BLOCK 3 CHANDRA LAYOUT STAGE 1 BENGALURU KARNATAKA PIN560072 INDIA,ROAD_SEGMENT,6,2.5,3.6666666666666665,2,12.950411183333332,77.52228063333332
14TH CROSS ROAD BM SHANKARAPPA INDUSTRIAL ESTATE SUNKADAKATTE BENGALURU KARNATAKA PIN560091 INDIA,ROAD_SEGMENT,1,5.0,4.0,1,12.989714,77.5079879
14TH CROSS ROAD EX SERVICEMEN COLONY VASANT NAGAR BENGALURU KARNATAKA PIN560001 INDIA,ROAD_SEGMENT,1,1.0,3.0,1,12.9922137,77.5942986
14TH CROSS ROAD GITANJALI CIRCLE MALLESHWARAM WEST BENGALURU KARNATAKA PIN560055 INDIA,ROAD_SEGMENT,3,1.0,2.3333333333333335,1,13.0052997,77.5622477
14TH CROSS ROAD KODANDARAMPURA MALLESHWARAM BENGALURU KARNATAKA PIN560003 INDIA,ROAD_SEGMENT,4,1.75,3.0,2,13.004481175,77.57113207500001
14TH CROSS ROAD KRISHNA APARTMENT KADUMALLESHWARA MALLESHWARAM BENGALURU KARNATAKA PIN560003 INDIA,ROAD_SEGMENT,8,1.625,2.75,6,13.0045101375,77.571110475
14TH CROSS ROAD MALLESHWARA EXTENSION MALLESHWARAM WEST BENGALURU KARNATAKA PIN560055 INDIA,ROAD_SEGMENT,3,2.0,3.0,1,13.004590299999998,77.5709895
14TH CROSS ROAD MARAGONDANAHALLI ELECTRONIC CITY BANGALORE SOUTH BENGALURU URBAN KARNATAKA 560100 INDIA,ROAD_SEGMENT,2,1.5,3.0,2,12.84177155,77.6466478
14TH CROSS ROAD MUTHURAYA SWAMY EXTENSION SUNKADAKATTE BENGALURU KARNATAKA PIN560091 INDIA,ROAD_SEGMENT,22,2.3181818181818183,2.3181818181818183,8,12.989429563636362,77.50770426363637
14TH CROSS ROAD NARAYANA NAGAR DODDAKALLASANDRA BENGALURU KARNATAKA PIN560062 INDIA,ROAD_SEGMENT,1,2.0,1.0,1,12.8787806,77.5552905
14TH CROSS ROAD NEELADRI NAGAR ELECTRONIC CITY BENGALURU KARNATAKA PIN560100 INDIA,ROAD_SEGMENT,20,1.7,1.7,9,12.841663454999999,77.64682709
14TH CROSS ROAD OSCAR ORCHARDS SAHAKARA NAGAR BENGALURU KARNATAKA PIN560092 INDIA,ROAD_SEGMENT,7,1.8571428571428572,2.142857142857143,3,13.06364802857143,77.58730861428572
14TH CROSS ROAD PALACE ORCHARD APARTMENT RMV EXTENSION SADASHIVA NAGAR BENGALURU KARNATAKA PIN560080 INDIA,ROAD_SEGMENT,2,4.0,3.0,1,13.00904615,77.58105645
14TH CROSS ROAD PALACE ORCHARD UPPER SADASHIVA NAGAR BENGALURU KARNATAKA PIN560080 INDIA,ROAD_SEGMENT,1,5.0,3.0,1,13.0089723,77.5810301
14TH CROSS ROAD SECTOR 6 HSR LAYOUT BENGALURU KARNATAKA PIN560102 INDIA,ROAD_SEGMENT,2,1.5,2.5,2,12.914856700000001,77.63377435
14TH CROSS ROAD SURYA LAYOUT BILEKAHALLI BENGALURU KARNATAKA PIN560076 INDIA,ROAD_SEGMENT,1,1.0,3.0,1,12.9005562,77.6076074
14TH CROSS ROAD VIDYAPEETA CIRCLE BANASHANKARI STAGE 1 BENGALURU KARNATAKA PIN560050 INDIA,ROAD_SEGMENT,2,3.5,3.0,1,12.9356474,77.5611945
14TH CROSS ROAD WHISPERING MEADOWS DOLLARS COLONY RMV STAGE 2 BENGALURU KARNATAKA PIN560094 INDIA,ROAD_SEGMENT,1,1.0,3.0,1,13.0473561,77.5720847
14TH MAIN ROAD BLOCK 5 STAGE 1 HBR LAYOUT BENGALURU KARNATAKA PIN560043 INDIA,ROAD_SEGMENT,6,1.0,2.6666666666666665,2,13.036641516666668,77.62513173333333
14TH MAIN ROAD BLOCK E SAHAKARA NAGAR BENGALURU KARNATAKA PIN560092 INDIA,ROAD_SEGMENT,1,2.0,3.0,1,13.0598288,77.5903835
14TH MAIN ROAD BLOCK F SAHAKARA NAGAR BENGALURU KARNATAKA PIN560092 INDIA,ROAD_SEGMENT,22,1.5909090909090908,2.909090909090909,16,13.061935163636365,77.58750505909092
14TH MAIN ROAD DR BR AMBEDKAR LAYOUT SECTOR 3 HSR LAYOUT BENGALURU KARNATAKA PIN560102 INDIA,ROAD_SEGMENT,140,1.0642857142857143,1.4714285714285715,34,12.911112226428571,77.63808596928571
14TH MAIN ROAD ESTEEM GARDENIA SAHAKARA NAGAR BENGALURU KARNATAKA PIN560092 INDIA,ROAD_SEGMENT,17,2.1176470588235294,2.764705882352941,5,13.058856276470589,77.59230214705883
14TH MAIN ROAD JAKKASANDRA KORAMANGALA BENGALURU KARNATAKA PIN560034 INDIA,ROAD_SEGMENT,2,1.0,1.0,2,12.923696450000001,77.63981204999999
14TH MAIN ROAD KODIGEHALLI GATE JUNCTION BYATARAYANAPURA BENGALURU KARNATAKA PIN560092 INDIA,ROAD_SEGMENT,25,1.48,2.92,10,13.058591804,77.593165556
14TH MAIN ROAD MATTIKERE LAYOUT MATHIKERE EXTENSION BENGALURU KARNATAKA PIN560054 INDIA,ROAD_SEGMENT,3,5.0,2.0,1,13.033591833333332,77.55778536666666
14TH MAIN ROAD NANDINI LAYOUT BENGALURU KARNATAKA PIN560096 INDIA,ROAD_SEGMENT,5,2.0,2.2,2,13.01503514,77.53097522
14TH MAIN ROAD OSCAR ORCHARDS SAHAKARA NAGAR BENGALURU KARNATAKA PIN560092 INDIA,ROAD_SEGMENT,10,1.8,3.3,6,13.062721730000002,77.58630433
14TH MAIN ROAD PILLAPPA GARDEN HSR LAYOUT BENGALURU KARNATAKA PIN560102 INDIA,ROAD_SEGMENT,6,1.0,2.8333333333333335,4,12.919149316666667,77.63823455
14TH MAIN ROAD RAJATH GREENS BLOCK 5 STAGE 1 HBR LAYOUT BENGALURU KARNATAKA PIN560043 INDIA,ROAD_SEGMENT,6,1.3333333333333333,3.0,3,13.036972400000002,77.62361093333332
14TH MAIN ROAD RENAISSANCE BRINDAVAN APARTMENT BHCS LAYOUT UTTARAHALLI BENGALURU KARNATAKA PIN560061 INDIA,ROAD_SEGMENT,1,5.0,3.0,1,12.908340679518664,77.54813570725165
14TH MAIN ROAD SAHAKARA NAGAR BENGALURU KARNATAKA PIN560092 INDIA,ROAD_SEGMENT,7,2.0,3.0,4,13.064210728571428,77.58460754285714
14TH MAIN ROAD SECTOR 3 HSR LAYOUT BENGALURU SOUTH CITY CORPORATION BENGALURU BANGALORE SOUTH BENGALURU URBAN KARNATAKA 560102 INDIA,ROAD_SEGMENT,1,1.0,1.0,1,12.9121282,77.6380917
14TH MAIN ROAD SECTOR 5 HSR LAYOUT BENGALURU KARNATAKA PIN560102 INDIA,ROAD_SEGMENT,45,1.1111111111111112,2.488888888888889,27,12.916599984444444,77.6381526888889
14TH MAIN ROAD SECTOR 6 HSR LAYOUT BENGALURU SOUTH CITY CORPORATION BENGALURU BANGALORE SOUTH BENGALURU URBAN KARNATAKA 560102 INDIA,ROAD_SEGMENT,1,1.0,1.0,1,12.9139674,77.6380715
14TH MAIN ROAD SRIRAM NAGAR MAHALAKSHMIPURAM BENGALURU KARNATAKA PIN560086 INDIA,ROAD_SEGMENT,1,2.0,1.0,1,13.0058851,77.5410665
14TH MAIN ROAD SUBRAMANYA NAGAR STAGE 2 RAJAJI NAGAR BENGALURU KARNATAKA PIN560010 INDIA,ROAD_SEGMENT,1,1.0,4.0,1,13.005085,77.558779
14TH MAIN ROAD THE METROPOLITAN COOPERATIVE HOUSING SOCIETY SECTOR 4 HSR LAYOUT BENGALURU KARNATAKA PIN560102 INDIA,ROAD_SEGMENT,268,1.2014925373134329,1.4776119402985075,68,12.911650766791045,77.63806698955224
14TH MAIN ROAD VALLIAPPA NAGAR BENGALURU KARNATAKA PIN560001 INDIA,ROAD_SEGMENT,35,1.0,1.0,7,12.991794534285713,77.59014349428571
15 17TH CROSS ROAD SECTOR 7 HSR LAYOUT BENGALURU SOUTH CITY CORPORATION BENGALURU BANGALORE SOUTH BENGALURU URBAN KARNATAKA 560102 INDIA,ROAD_SEGMENT,1,2.0,1.0,1,12.9122555,77.6358995
1542 7TH CROSS ROAD AGARA SECTOR 1 HSR LAYOUT BENGALURU SOUTH CITY CORPORATION BENGALURU BANGALORE SOUTH BENGALURU URBAN KARNATAKA 560102 INDIA,ROAD_SEGMENT,1,1.0,3.0,1,12.9194517,77.6450483
1543 7TH CROSS ROAD AGARA SECTOR 1 HSR LAYOUT BENGALURU SOUTH CITY CORPORATION BENGALURU BANGALORE SOUTH BENGALURU URBAN KARNATAKA 560102 INDIA,ROAD_SEGMENT,1,1.0,2.0,1,12.9196957,77.6448783
15511551A 19TH MAIN ROAD AGARA SECTOR 1 IBLUR BENGALURU SOUTH CITY CORPORATION BENGALURU BANGALORE SOUTH BENGALURU URBAN KARNATAKA 560102 INDIA,ROAD_SEGMENT,1,1.0,3.0,1,12.920586,77.6451102
15TH A MAIN ROAD EAST COLONY YELAHANKA BENGALURU KARNATAKA PIN560064 INDIA,ROAD_SEGMENT,15,1.0,1.1333333333333333,9,13.099566026666666,77.58854615333333
15TH C CROSS ROAD NAGAPURA MAHALAKSHMIPURAM NAGAPURA BENGALURU WEST CITY CORPORATION BENGALURU BANGALORE NORTH BENGALURU URBAN KARNATAKA 560086 INDIA,ROAD_SEGMENT,1,2.0,3.0,1,13.0066417,77.54399
15TH C CROSS ROAD SUMUKHA MAHALAKSHMIPURAM BENGALURU KARNATAKA PIN560086 INDIA,ROAD_SEGMENT,1,2.0,3.0,1,13.0065767,77.5439517
15TH CROSS ROAD AJMERA ANNEX KARUNA NAGAR DODDATHOGUR BENGALURU KARNATAKA PIN560100 INDIA,ROAD_SEGMENT,20,1.75,1.1,6,12.84182162,77.646153485
15TH CROSS ROAD BDA LAYOUT BLOCK 3 CHANDRA LAYOUT STAGE 1 BENGALURU KARNATAKA PIN560072 INDIA,ROAD_SEGMENT,7,4.142857142857143,3.2857142857142856,3,12.950728757142857,77.52204922857143
15TH CROSS ROAD BLOCK D SAHAKARA NAGAR BENGALURU KARNATAKA PIN560092 INDIA,ROAD_SEGMENT,40,2.125,2.675,23,13.060942757500001,77.58741699250001
15TH CROSS ROAD BLOCK F SAHAKARA NAGAR BENGALURU KARNATAKA PIN560092 INDIA,ROAD_SEGMENT,21,1.9047619047619047,3.0476190476190474,12,13.062252457142858,77.58714288571429
15TH CROSS ROAD CHITRAPUR CIRCLE MALLESHWARAM BENGALURU KARNATAKA PIN560003 INDIA,ROAD_SEGMENT,8,1.75,2.25,1,13.0057349875,77.5645807375
15TH CROSS ROAD CHITRAPUR HOUSING COMPLEX MALLESHWARAM WEST BENGALURU KARNATAKA PIN560055 INDIA,ROAD_SEGMENT,15,1.8,2.933333333333333,2,13.005549346666667,77.56822319999999
15TH CROSS ROAD CPWD QUARTERS SECTOR 1 HSR LAYOUT BENGALURU KARNATAKA PIN560102 INDIA,ROAD_SEGMENT,4,1.25,3.0,2,12.914000325,77.651743125
15TH CROSS ROAD DEVASANDRA RMV STAGE 2 BENGALURU KARNATAKA PIN560054 INDIA,ROAD_SEGMENT,1,2.0,3.0,1,13.0390915,77.5662425
15TH CROSS ROAD EMBASSY BUSINESS HUB YELAHANKA BENGALURU KARNATAKA PIN560064 INDIA,ROAD_SEGMENT,2,1.5,3.0,1,13.1089021,77.60370130000001
15TH CROSS ROAD GITANJALI CIRCLE MALLESHWARAM WEST BENGALURU KARNATAKA PIN560055 INDIA,ROAD_SEGMENT,2,2.0,3.0,1,13.0057283,77.5637
15TH CROSS ROAD HULIMANGALA ELECTRONIC CITY BANGALORE SOUTH BENGALURU URBAN KARNATAKA 560100 INDIA,ROAD_SEGMENT,3,1.6666666666666667,1.3333333333333333,2,12.84146,77.6462633
15TH CROSS ROAD IDEAL HOME TOWNSHIP RAJARAJESHWARI NAGAR BENGALURU KARNATAKA PIN560098 INDIA,ROAD_SEGMENT,1,1.0,3.0,1,12.931765,77.5156634
15TH CROSS ROAD MALLESHWARA EXTENSION MALLESHWARAM WEST BENGALURU KARNATAKA PIN560055 INDIA,ROAD_SEGMENT,774,1.2855297157622738,1.8695090439276485,58,13.005500284754524,77.56918788901808
15TH CROSS ROAD NADAPRABHU KEMPEGOWDA CIRCLE HSR LAYOUT BENGALURU KARNATAKA PIN560102 INDIA,ROAD_SEGMENT,3,1.0,1.6666666666666667,2,12.913624733333334,77.64441876666667
15TH CROSS ROAD NEELADRI NAGAR ELECTRONIC CITY BENGALURU KARNATAKA PIN560100 INDIA,ROAD_SEGMENT,1,2.0,1.0,1,12.84146,77.6462633
15TH CROSS ROAD OSCAR ORCHARDS SAHAKARA NAGAR BENGALURU KARNATAKA PIN560092 INDIA,ROAD_SEGMENT,87,1.8620689655172413,2.793103448275862,45,13.063355743678162,77.58690181609195
15TH CROSS ROAD RANGANATHAPURA MALLESHWARAM BENGALURU KARNATAKA PIN560003 INDIA,ROAD_SEGMENT,17,1.7647058823529411,2.5294117647058822,9,13.005482652941177,77.57120172352941
15TH CROSS ROAD SECTOR 6 HSR LAYOUT BENGALURU KARNATAKA PIN560102 INDIA,ROAD_SEGMENT,12,2.0833333333333335,1.9166666666666667,6,12.91358130975505,77.63382393220827
15TH CROSS ROAD SRI VASAVI GARDEN MAHALAKSHMI LAYOUT BENGALURU KARNATAKA PIN560086 INDIA,ROAD_SEGMENT,6,1.8333333333333333,1.0,4,13.008500750000001,77.54306813333334
15TH CROSS ROAD SRPC QUARTERS DEFENCE COLONY SAHAKARA NAGAR BENGALURU KARNATAKA PIN560092 INDIA,ROAD_SEGMENT,15,2.0,2.6,8,13.059362526666666,77.58761551333333
15TH CROSS ROAD STERLING PARK KODIGEHALLI BENGALURU KARNATAKA PIN560092 INDIA,ROAD_SEGMENT,8,2.0,1.25,2,13.058091975,77.5878208
15TH CROSS ROAD SUMUKHA MAHALAKSHMIPURAM BENGALURU KARNATAKA PIN560086 INDIA,ROAD_SEGMENT,36,1.5833333333333333,2.361111111111111,22,13.008599697222222,77.54327388333334
15TH CROSS ROAD THIMMARAYA GOWDA LAYOUT ITTAMADU BANASHANKARI STAGE 3 BENGALURU KARNATAKA PIN560085 INDIA,ROAD_SEGMENT,3,3.3333333333333335,2.6666666666666665,3,12.919445467379873,77.54210092782006
15TH MAIN ROAD DR BR AMBEDKAR LAYOUT SECTOR 3 HSR LAYOUT BENGALURU KARNATAKA PIN560102 INDIA,ROAD_SEGMENT,2,2.0,3.0,1,12.9091775,77.6394697
15TH MAIN ROAD ESTEEM GARDENIA SAHAKARA NAGAR BENGALURU KARNATAKA PIN560092 INDIA,ROAD_SEGMENT,11,1.9090909090909092,1.1818181818181819,3,13.059207572727274,77.59285588181818
15TH MAIN ROAD GREEN LEAF LAYOUT BLOCK 4 KORAMANGALA BENGALURU KARNATAKA PIN560034 INDIA,ROAD_SEGMENT,1,2.0,3.0,1,12.9352583,77.6286783
15TH MAIN ROAD HSR LAYOUT BENGALURU KARNATAKA PIN560102 INDIA,ROAD_SEGMENT,1,1.0,3.0,1,12.9118288,77.6416839
15TH MAIN ROAD JAI BHUVANESWARI NAGAR NANDINI LAYOUT BENGALURU KARNATAKA PIN560096 INDIA,ROAD_SEGMENT,2,1.0,4.0,2,13.01391725,77.53317365000001
15TH MAIN ROAD NADA PRABHU KEMPEGOWDA CIRCLE MATHIKERE BENGALURU KARNATAKA PIN560054 INDIA,ROAD_SEGMENT,1,5.0,3.0,1,13.0344213,77.5570406
15TH MAIN ROAD NANDINI LAYOUT BENGALURU KARNATAKA PIN560096 INDIA,ROAD_SEGMENT,8,1.75,2.5,4,13.014775,77.530894
15TH MAIN ROAD OSCAR ORCHARDS SAHAKARA NAGAR BENGALURU KARNATAKA PIN560092 INDIA,ROAD_SEGMENT,3,1.6666666666666667,3.0,2,13.063141933333334,77.58688823333334
15TH MAIN ROAD PANCHADEEP COLONY NANDINI LAYOUT BENGALURU KARNATAKA PIN560096 INDIA,ROAD_SEGMENT,3,2.3333333333333335,3.6666666666666665,2,13.013153699999998,77.534876
15TH MAIN ROAD PWD QUARTERS NANDINI LAYOUT BENGALURU KARNATAKA PIN560096 INDIA,ROAD_SEGMENT,5,1.8,3.8,3,13.01349694,77.53425478
15TH MAIN ROAD SAHAKARA NAGAR BENGALURU KARNATAKA PIN560092 INDIA,ROAD_SEGMENT,2,2.5,3.0,1,13.0648087,77.5841573
15TH MAIN ROAD SECTOR 3 HSR LAYOUT BENGALURU KARNATAKA PIN560102 INDIA,ROAD_SEGMENT,1,1.0,3.0,1,12.9114347,77.6415319
15TH MAIN ROAD SIDDANNA LAYOUT BANASHANKARI STAGE 2 BENGALURU KARNATAKA PIN560070 INDIA,ROAD_SEGMENT,1,2.0,1.0,1,12.9246365,77.5668147
15TH MAIN ROAD SYNDICATE BANK QUARTERS NANDINI LAYOUT BENGALURU KARNATAKA PIN560096 INDIA,ROAD_SEGMENT,14,1.5714285714285714,3.5,8,13.012959507142856,77.53494497857143
1622 GEAR SCHOOL ROAD PANATHUR BENGALURU EAST CITY CORPORATION BENGALURU BANGALORE EAST BENGALURU URBAN KARNATAKA 560103 INDIA,ROAD_SEGMENT,8,2.25,2.875,3,12.9263734375,77.6948554125
16TH A CROSS ROAD BLOCK 5 STAGE 1 HBR LAYOUT BENGALURU KARNATAKA PIN560043 INDIA,ROAD_SEGMENT,2,1.0,3.5,1,13.03748165,77.62469999999999
16TH A CROSS ROAD CHANUKYA LAYOUT NAGAVARA VILLAGE NAGAVARA BENGALURU KARNATAKA PIN560045 INDIA,ROAD_SEGMENT,1,1.0,1.0,1,13.0384483,77.624905
16TH A MAIN ROAD EAST COLONY YELAHANKA BENGALURU KARNATAKA PIN560064 INDIA,ROAD_SEGMENT,27,1.037037037037037,1.6666666666666667,12,13.09964191111111,77.5889889888889
16TH A MAIN ROAD SECTOR A YELAHANKA SATELLITE TOWN BENGALURU NORTH CITY CORPORATION BENGALURU YELAHANKA TALUKU BENGALURU URBAN KARNATAKA 560064 INDIA,ROAD_SEGMENT,2,1.0,2.5,2,13.0997712,77.5888531
16TH B CROSS ROAD 1ST STAGE YELAHANKA NEW TOWN BENGALURU KARNATAKA PIN560064 INDIA,ROAD_SEGMENT,34,1.588235294117647,1.5,8,13.098752329411765,77.57732633529412
16TH B CROSS ROAD 2ND STAGE YELAHANKA EXTENSION YELAHANKA NEW TOWN BENGALURU KARNATAKA PIN560064 INDIA,ROAD_SEGMENT,10,2.0,1.2,1,13.094165530000001,77.58130605
16TH B CROSS ROAD BLOCK 5 STAGE 1 HBR LAYOUT BENGALURU KARNATAKA PIN560043 INDIA,ROAD_SEGMENT,3,1.0,4.333333333333333,1,13.037096666666665,77.62488499999999
16TH B CROSS ROAD LIG 3RD STAGE YELAHANKA NEW TOWN YELAHANKA SATELLITE TOWN BENGALURU NORTH CITY CORPORATION BENGALURU YELAHANKA TALUKU BENGALURU URBAN KARNATAKA 560064 INDIA,ROAD_SEGMENT,1,1.0,1.0,1,13.099139,77.5771656
16TH B CROSS ROAD PWD QUARTERS SECTOR B YELAHANKA NEW TOWN BENGALURU KARNATAKA PIN560064 INDIA,ROAD_SEGMENT,2,1.0,2.0,1,13.094895,77.5801812
16TH B CROSS ROAD STAGE 3 YELAHANKA NEW TOWN BENGALURU KARNATAKA PIN560064 INDIA,ROAD_SEGMENT,3,1.0,3.0,2,13.096410433333332,77.57860326666666
16TH B CROSS ROAD UDAYA LAYOUT STAGE 3 YELAHANKA NEW TOWN BENGALURU KARNATAKA PIN560064 INDIA,ROAD_SEGMENT,1,1.0,1.0,1,13.0974618,77.5779614
16TH B MAIN ROAD BLOCK 4B KORAMANGALA BENGALURU KARNATAKA PIN560034 INDIA,ROAD_SEGMENT,4,2.0,3.0,1,12.9314203,77.6231301
16TH B MAIN ROAD MESTRIPALYA BLOCK 4B KORAMANGALA BENGALURU KARNATAKA PIN560034 INDIA,ROAD_SEGMENT,2,1.0,3.0,1,12.93345935,77.6240412
16TH C CROSS ROAD BLOCK 5 STAGE 1 HBR LAYOUT BENGALURU KARNATAKA PIN560043 INDIA,ROAD_SEGMENT,1,1.0,4.0,1,13.0367459,77.6246482
16TH CROSS ROAD AJMERA ANNEX KARUNA NAGAR DODDATHOGUR BENGALURU KARNATAKA PIN560100 INDIA,ROAD_SEGMENT,19,1.736842105263158,1.368421052631579,12,12.841981989473686,77.64575136315788
16TH CROSS ROAD AMBEDKAR CIRCLE DEVARA BEESANA HALLI BENGALURU KARNATAKA PIN560103 INDIA,ROAD_SEGMENT,1,2.0,4.0,1,12.9248034,77.6947587
16TH CROSS ROAD BDA LAYOUT BLOCK 3 CHANDRA LAYOUT STAGE 1 BENGALURU KARNATAKA PIN560072 INDIA,ROAD_SEGMENT,1,5.0,3.0,1,12.9508737,77.5218725
16TH CROSS ROAD BLOCK 5 HMT LAYOUT VIDYARANYAPURA BENGALURU KARNATAKA PIN560097 INDIA,ROAD_SEGMENT,3,2.0,3.0,1,13.080408400000001,77.558415
16TH CROSS ROAD BLOCK A SUBRAMANYA NAGAR STAGE 2 RAJAJI NAGAR BENGALURU KARNATAKA PIN560010 INDIA,ROAD_SEGMENT,15,1.8,3.0,7,13.00677476,77.55807670666667
16TH CROSS ROAD BLOCK D SAHAKARA NAGAR BENGALURU KARNATAKA PIN560092 INDIA,ROAD_SEGMENT,1,1.0,3.0,1,13.061454,77.5869453
16TH CROSS ROAD CHITRAPUR CIRCLE MALLESHWARAM BENGALURU KARNATAKA PIN560003 INDIA,ROAD_SEGMENT,1,2.0,1.0,1,13.0066825,77.5644127
16TH CROSS ROAD CHITRAPUR HOUSING COMPLEX MALLESHWARAM WEST BENGALURU KARNATAKA PIN560055 INDIA,ROAD_SEGMENT,9,1.7777777777777777,2.3333333333333335,1,13.003571555555556,77.56738947777778
16TH CROSS ROAD GAYATRI DEVI PARK EXTENSION MALLESHWARAM BENGALURU KARNATAKA PIN560003 INDIA,ROAD_SEGMENT,1,5.0,2.0,1,13.0061955,77.5767369
16TH CROSS ROAD HOSHALLI PADARAYANAPURA BENGALURU KARNATAKA PIN560026 INDIA,ROAD_SEGMENT,1,2.0,1.0,1,12.9645632,77.5510152
16TH CROSS ROAD IDEAL HOME TOWNSHIP RAJARAJESHWARI NAGAR BENGALURU KARNATAKA PIN560098 INDIA,ROAD_SEGMENT,1,3.0,3.0,1,12.9312288,77.5153054
16TH CROSS ROAD MALLESHWARA EXTENSION MALLESHWARAM WEST BENGALURU KARNATAKA PIN560055 INDIA,ROAD_SEGMENT,4,1.0,3.0,2,13.006417525,77.57010485
16TH CROSS ROAD PALACE ORCHARD UPPER SADASHIVA NAGAR BENGALURU KARNATAKA PIN560080 INDIA,ROAD_SEGMENT,17,1.2352941176470589,2.8823529411764706,6,13.005708570588235,77.58083773529412
16TH CROSS ROAD RANGANATHAPURA MALLESHWARAM BENGALURU KARNATAKA PIN560003 INDIA,ROAD_SEGMENT,60,1.5833333333333333,2.716666666666667,31,13.00639908,77.57115307166667
16TH CROSS ROAD SRI KODANDA RAMA SWAMY CIRCLE PADARAYANAPURA BENGALURU KARNATAKA PIN560026 INDIA,ROAD_SEGMENT,1,2.0,4.0,1,12.9642101,77.5510152
16TH CROSS ROAD THE METROPOLITAN COOPERATIVE HOUSING SOCIETY SECTOR 4 HSR LAYOUT BENGALURU KARNATAKA PIN560102 INDIA,ROAD_SEGMENT,5,1.0,1.8,1,12.912617700000002,77.6383988
16TH E CROSS ROAD ARVIND ORCHARDS DEFENCE COLONY SAHAKARA NAGAR BENGALURU KARNATAKA PIN560092 INDIA,ROAD_SEGMENT,1,1.0,3.0,1,13.0588255,77.5853712
16TH MAIN ROAD GKVK NAGAR YELAHANKA BENGALURU KARNATAKA PIN560065 INDIA,ROAD_SEGMENT,6,4.0,1.0,1,13.080897299999998,77.58778635
16TH MAIN ROAD GREEN CITY EUTHOPIA SUNSHINE COLONY BTM LAYOUT STAGE 2 BENGALURU KARNATAKA PIN560076 INDIA,ROAD_SEGMENT,5,1.4,2.6,3,12.9100539,77.61003842
16TH MAIN ROAD IAS COLONY BTM LAYOUT STAGE 2 BENGALURU KARNATAKA PIN560076 INDIA,ROAD_SEGMENT,1,2.0,2.0,1,12.9108348,77.6100182
16TH MAIN ROAD JAI BHUVANESWARI NAGAR NANDINI LAYOUT BENGALURU KARNATAKA PIN560096 INDIA,ROAD_SEGMENT,2,4.5,3.5,1,13.01409795,77.53173799999999
16TH MAIN ROAD MAHADESHWARA NAGAR BTM LAYOUT STAGE 2 BENGALURU KARNATAKA PIN560076 INDIA,ROAD_SEGMENT,2,2.0,3.0,2,12.90517995,77.61145845
16TH MAIN ROAD NANDINI LAYOUT BENGALURU KARNATAKA PIN560096 INDIA,ROAD_SEGMENT,5,3.6,1.4,5,13.014470800000002,77.5309589
16TH MAIN ROAD SUNSHINE COLONY BTM LAYOUT STAGE 2 BENGALURU KARNATAKA PIN560076 INDIA,ROAD_SEGMENT,5,1.6,2.4,2,12.910580379999999,77.60999713999999
17TH A CROSS ROAD PRASANTH NAGAR T DASARAHALLI BENGALURU KARNATAKA PIN560057 INDIA,ROAD_SEGMENT,1,2.0,4.0,1,13.0505251,77.5154388
17TH A MAIN ROAD BLOCK 5A KORAMANGALA BENGALURU KARNATAKA PIN560095 INDIA,ROAD_SEGMENT,1,1.0,3.0,1,12.9338365,77.6229067
17TH A MAIN ROAD KOTTALAPALYA BENGALURU KARNATAKA PIN560095 INDIA,ROAD_SEGMENT,7,1.1428571428571428,1.4285714285714286,4,12.934711014285714,77.62298094285714
17TH A MAIN ROAD RAMAKRISHNA YOGASHRAM GIRI NAGAR BENGALURU KARNATAKA PIN560085 INDIA,ROAD_SEGMENT,2,2.0,3.0,1,12.9389302,77.54787005
17TH C CROSS ROAD PRASANTH NAGAR T DASARAHALLI BENGALURU KARNATAKA PIN560057 INDIA,ROAD_SEGMENT,1,2.0,1.0,1,13.0502164,77.5158814
17TH C MAIN ROAD BLOCK 5 KORAMANGALA BENGALURU KARNATAKA PIN560095 INDIA,ROAD_SEGMENT,3,1.0,1.6666666666666667,1,12.933865500000001,77.61963516666667
17TH CROSS ROAD BDA LAYOUT BLOCK 3 CHANDRA LAYOUT STAGE 1 BENGALURU KARNATAKA PIN560072 INDIA,ROAD_SEGMENT,1,5.0,5.0,1,12.9514367,77.521535
17TH CROSS ROAD CPWD QUARTERS SECTOR 1 HSR LAYOUT BENGALURU KARNATAKA PIN560102 INDIA,ROAD_SEGMENT,1,1.0,1.0,1,12.9121267,77.651635
17TH CROSS ROAD HSR LAYOUT BENGALURU KARNATAKA PIN560102 INDIA,ROAD_SEGMENT,10,1.7,2.2,3,12.912044009999999,77.64442032
17TH CROSS ROAD IDEAL HOME TOWNSHIP RAJARAJESHWARI NAGAR BENGALURU KARNATAKA PIN560098 INDIA,ROAD_SEGMENT,1,1.0,3.0,1,12.9303796,77.5149675
17TH CROSS ROAD MANJUNATHA LAYOUT SECTOR 7 HSR LAYOUT BENGALURU KARNATAKA PIN560102 INDIA,ROAD_SEGMENT,22,1.0454545454545454,1.0909090909090908,7,12.912400970708994,77.63531404863966
17TH CROSS ROAD NADAPRABHU KEMPEGOWDA CIRCLE HSR LAYOUT BENGALURU KARNATAKA PIN560102 INDIA,ROAD_SEGMENT,16,1.25,2.625,7,12.91206545,77.64514209375
17TH CROSS ROAD OSCAR ORCHARDS SAHAKARA NAGAR BENGALURU KARNATAKA PIN560092 INDIA,ROAD_SEGMENT,11,2.0,2.909090909090909,8,13.063590981818182,77.58673221818182
17TH CROSS ROAD PARANGIPALYA SECTOR 2 HSR LAYOUT BENGALURU KARNATAKA PIN560102 INDIA,ROAD_SEGMENT,45,1.1111111111111112,1.3111111111111111,17,12.911979737777779,77.65150262666667
17TH CROSS ROAD SECTOR 3 HSR LAYOUT BENGALURU SOUTH CITY CORPORATION BENGALURU BANGALORE SOUTH BENGALURU URBAN KARNATAKA 560102 INDIA,ROAD_SEGMENT,2,2.0,3.0,2,12.912178749999999,77.64140815
17TH CROSS ROAD SECTOR 7 HSR LAYOUT BENGALURU KARNATAKA PIN560102 INDIA,ROAD_SEGMENT,353,1.9376770538243626,1.2039660056657224,59,12.912419509408274,77.6337279830333
17TH CROSS ROAD THE METROPOLITAN COOPERATIVE HOUSING SOCIETY SECTOR 4 HSR LAYOUT BENGALURU KARNATAKA PIN560102 INDIA,ROAD_SEGMENT,293,1.552901023890785,1.4334470989761092,66,12.912328379483826,77.63679742387639
17TH CROSS ROAD VANGANAHALLI SECTOR 1 HSR LAYOUT BENGALURU KARNATAKA PIN560102 INDIA,ROAD_SEGMENT,13,1.3846153846153846,2.3846153846153846,4,12.911975323076923,77.64756623076923
17TH D MAIN ROAD BLOCK 5 KORAMANGALA BENGALURU KARNATAKA PIN560095 INDIA,ROAD_SEGMENT,1,1.0,3.0,1,12.9364626,77.6206199
17TH D MAIN ROAD PATEL NARAYANA REDDY LAYOUT KORAMANGALA BENGALURU KARNATAKA PIN560095 INDIA,ROAD_SEGMENT,1,2.0,1.0,1,12.938951,77.6256592
17TH F CROSS ROAD BANGALORE METROPOLITAN TRANSPORT CORPORATION QUARTERS HOYSALA NAGAR INDIRANAGAR BENGALURU KARNATAKA PIN560038 INDIA,ROAD_SEGMENT,6,2.0,3.0,1,12.981760683333334,77.63384463333334
17TH F MAIN ROAD MM GARDEN BLOCK 6 KORAMANGALA BENGALURU KARNATAKA PIN560095 INDIA,ROAD_SEGMENT,2,1.0,3.5,2,12.939823350000001,77.62532250000001
17TH G MAIN ROAD BLOCK 6 KORAMANGALA BENGALURU KARNATAKA PIN560095 INDIA,ROAD_SEGMENT,1,2.0,1.0,1,12.9403798,77.6237757
17TH G MAIN ROAD TUNGABHADRA BLOCK NATIONAL GAMES VILLAGE KORAMANGALA BENGALURU KARNATAKA PIN560047 INDIA,ROAD_SEGMENT,3,2.0,1.0,2,12.940807333333334,77.62438293333334
17TH H MAIN ROAD BLOCK 6 KORAMANGALA BENGALURU KARNATAKA PIN560095 INDIA,ROAD_SEGMENT,1,2.0,1.0,1,12.9378446,77.6215854
17TH H MAIN ROAD KHB COLONY BLOCK 5 KORAMANGALA BENGALURU KARNATAKA PIN560095 INDIA,ROAD_SEGMENT,13,1.6153846153846154,1.9230769230769231,6,12.936107215384615,77.61723644615384
17TH MAIN ROAD FREEDOM FIGHTERS COLONY LAGGERE BENGALURU KARNATAKA PIN560058 INDIA,ROAD_SEGMENT,30,3.566666666666667,3.2,13,13.00610556,77.52743500333332
17TH MAIN ROAD HSR LAYOUT BENGALURU KARNATAKA PIN560102 INDIA,ROAD_SEGMENT,1,2.0,3.0,1,12.9119065,77.6426806
17TH MAIN ROAD KADIRENAHALLI NEW COLONY BANASHANKARI STAGE 2 BENGALURU KARNATAKA PIN560070 INDIA,ROAD_SEGMENT,1,2.0,1.0,1,12.9230354,77.5657006
17TH MAIN ROAD KHB COLONY BLOCK 5 KORAMANGALA BENGALURU KARNATAKA PIN560095 INDIA,ROAD_SEGMENT,3,1.0,3.0,2,12.936239833333332,77.6168153
17TH MAIN ROAD MUNESHWARA BLOCK BANASHANKARI STAGE 1 BENGALURU KARNATAKA PIN560026 INDIA,ROAD_SEGMENT,3,3.0,2.6666666666666665,2,12.942093300000002,77.54824303333334
17TH MAIN ROAD NARASIMHAIAH GARDEN JP NAGAR PHASE 5 BENGALURU KARNATAKA PIN560078 INDIA,ROAD_SEGMENT,1,5.0,3.0,1,12.9064342,77.5904396
17TH MAIN ROAD OSCAR ORCHARDS SAHAKARA NAGAR BENGALURU KARNATAKA PIN560092 INDIA,ROAD_SEGMENT,1,3.0,3.0,1,13.0644557,77.5857619
17TH MAIN ROAD RIECHS LAYOUT KURUBARAHALLI BENGALURU KARNATAKA PIN560086 INDIA,ROAD_SEGMENT,1,1.0,3.0,1,13.0041433,77.529415
17TH MAIN ROAD SIDDANNA LAYOUT BANASHANKARI STAGE 2 BENGALURU KARNATAKA PIN560070 INDIA,ROAD_SEGMENT,1,1.0,4.0,1,12.9241479,77.5661114
17TH MAIN ROAD VYMAC CIRCLE KAMMAGONDANAHALLI BENGALURU KARNATAKA PIN560015 INDIA,ROAD_SEGMENT,2,1.5,2.0,2,13.06842215,77.5301467
18 17TH CROSS ROAD SECTOR 7 HSR LAYOUT BENGALURU SOUTH CITY CORPORATION BENGALURU BANGALORE SOUTH BENGALURU URBAN KARNATAKA 560102 INDIA,ROAD_SEGMENT,1,1.0,3.0,1,12.9122625,77.6355157
18TH A MAIN ROAD HSR LAYOUT BENGALURU KARNATAKA PIN560102 INDIA,ROAD_SEGMENT,4,1.0,3.0,1,12.910784150000001,77.64432744999999
18TH CROSS ROAD BDA LAYOUT BLOCK 3 CHANDRA LAYOUT STAGE 1 BENGALURU KARNATAKA PIN560072 INDIA,ROAD_SEGMENT,1,5.0,5.0,1,12.95102,77.5211383
18TH CROSS ROAD HSR LAYOUT BENGALURU KARNATAKA PIN560102 INDIA,ROAD_SEGMENT,31,1.7419354838709677,1.4516129032258065,5,12.911908912903227,77.64435448064516
18TH CROSS ROAD MALLESHWARAM 18TH CROSS JUNCTION MALLESHWARAM WEST BENGALURU KARNATAKA PIN560055 INDIA,ROAD_SEGMENT,383,1.5953002610966058,2.506527415143603,97,13.008491136031333,77.57069275013055
18TH CROSS ROAD MALLESHWARAM WEST BENGALURU KARNATAKA PIN560055 INDIA,ROAD_SEGMENT,4,2.75,3.0,2,13.009022250000001,77.562760475
18TH CROSS ROAD NADAPRABHU KEMPEGOWDA CIRCLE HSR LAYOUT BENGALURU KARNATAKA PIN560102 INDIA,ROAD_SEGMENT,2,1.5,2.0,2,12.91195405,77.6445318
18TH CROSS ROAD OSCAR ORCHARDS SAHAKARA NAGAR BENGALURU KARNATAKA PIN560092 INDIA,ROAD_SEGMENT,2,1.0,3.0,1,13.0633842,77.5857647
18TH CROSS ROAD PALACE ORCHARD UPPER SADASHIVA NAGAR BENGALURU KARNATAKA PIN560080 INDIA,ROAD_SEGMENT,2,1.0,3.0,2,13.00774835,77.5831005
18TH CROSS ROAD RAJIV GANDHI NAGAR BOMMANAHALLI BENGALURU KARNATAKA PIN560068 INDIA,ROAD_SEGMENT,2,2.0,2.0,2,12.910338,77.62713635
18TH CROSS ROAD SADASHIVANAGAR SADASHIVA NAGARA BENGALURU WEST CITY CORPORATION BENGALURU BANGALORE NORTH BENGALURU URBAN KARNATAKA 560003 INDIA,ROAD_SEGMENT,1,1.0,3.0,1,13.0085377,77.5715295
18TH CROSS ROAD SARANGAPANI MALLESHWARAM WEST BENGALURU KARNATAKA PIN560055 INDIA,ROAD_SEGMENT,68,1.6911764705882353,2.426470588235294,42,13.008552601470587,77.56975173676472
18TH CROSS ROAD SECTOR 7 HSR LAYOUT BENGALURU KARNATAKA PIN560102 INDIA,ROAD_SEGMENT,1,2.0,3.0,1,12.9119211,77.6320847
18TH CROSS ROAD THE METROPOLITAN COOPERATIVE HOUSING SOCIETY SECTOR 4 HSR LAYOUT BENGALURU KARNATAKA PIN560102 INDIA,ROAD_SEGMENT,33,1.2727272727272727,1.7575757575757576,20,12.911801636363636,77.63813398181819
18TH MAIN ROAD BLOCK 2 KORAMANGALA BENGALURU KARNATAKA PIN560068 INDIA,ROAD_SEGMENT,3,1.6666666666666667,2.0,3,12.925504033333333,77.61855666666666
18TH MAIN ROAD BLOCK 5 KORAMANGALA BENGALURU KARNATAKA PIN560095 INDIA,ROAD_SEGMENT,1,2.0,1.0,1,12.9368422,77.6203784
18TH MAIN ROAD BRINDAVAN LAYOUT PADMANABHANAGAR BENGALURU KARNATAKA PIN560070 INDIA,ROAD_SEGMENT,1,5.0,3.0,1,12.912500831310556,77.55256659358511
18TH MAIN ROAD FREEDOM FIGHTERS COLONY LAGGERE BENGALURU KARNATAKA PIN560058 INDIA,ROAD_SEGMENT,1,1.0,4.0,1,13.0048963,77.5282671
18TH MAIN ROAD ITTAMADU PADMANABHANAGAR BENGALURU KARNATAKA PIN560070 INDIA,ROAD_SEGMENT,2,2.0,1.5,1,12.9144902,77.55373755
18TH MAIN ROAD JP NAGAR PHASE 2 BENGALURU KARNATAKA PIN560078 INDIA,ROAD_SEGMENT,1,2.0,3.0,1,12.910164,77.5903232
18TH MAIN ROAD MADIWALA JUNCTION MADIVALA BENGALURU KARNATAKA PIN560068 INDIA,ROAD_SEGMENT,1,1.0,1.0,1,12.9254843,77.6183556
18TH MAIN ROAD NADAPRABHU KEMPEGOWDA CIRCLE HSR LAYOUT BENGALURU KARNATAKA PIN560102 INDIA,ROAD_SEGMENT,2,1.0,1.0,1,12.9133579,77.6443256
18TH MAIN ROAD SECTOR 3 HSR LAYOUT BENGALURU KARNATAKA PIN560102 INDIA,ROAD_SEGMENT,1,1.0,3.0,1,12.9091087,77.6438583
19TH CROSS ROAD DR BR AMBEDKAR LAYOUT SECTOR 3 HSR LAYOUT BENGALURU KARNATAKA PIN560102 INDIA,ROAD_SEGMENT,2,1.0,1.0,2,12.9111897,77.6383383
19TH CROSS ROAD NAGAWARA JUNCTION HBR LAYOUT BENGALURU KARNATAKA PIN560043 INDIA,ROAD_SEGMENT,1,1.0,1.0,1,13.0395456,77.6251872
19TH CROSS ROAD THE METROPOLITAN COOPERATIVE HOUSING SOCIETY SECTOR 4 HSR LAYOUT BENGALURU KARNATAKA PIN560102 INDIA,ROAD_SEGMENT,32,1.375,1.1875,10,12.911492356250001,77.638151971875
19TH MAIN ROAD BASAVA MANTAPA CIRCLE RAJAJI NAGAR BENGALURU KARNATAKA PIN560010 INDIA,ROAD_SEGMENT,1,2.0,4.0,1,13.0172726,77.5489445
19TH MAIN ROAD DR VISHUVARDHAN CIRCLE KODIPUR BENGALURU KARNATAKA PIN560061 INDIA,ROAD_SEGMENT,1,2.0,1.0,1,12.9071194,77.5343921
19TH MAIN ROAD HEAVIE HALCYON AGARA HSR LAYOUT BENGALURU KARNATAKA PIN560102 INDIA,ROAD_SEGMENT,10,1.3,2.9,9,12.921794969999999,77.64512733000001
19TH MAIN ROAD HSR LAYOUT BENGALURU KARNATAKA PIN560102 INDIA,ROAD_SEGMENT,27,1.3703703703703705,2.5555555555555554,6,12.911366548148148,77.64458751481482
19TH MAIN ROAD KIMS STAFF QUARTERS SIDDANNA LAYOUT BANASHANKARI STAGE 2 BENGALURU KARNATAKA PIN560070 INDIA,ROAD_SEGMENT,1,1.0,4.0,1,12.9245326,77.5650456
19TH MAIN ROAD NADAPRABHU KEMPEGOWDA CIRCLE HSR LAYOUT BENGALURU KARNATAKA PIN560102 INDIA,ROAD_SEGMENT,16,1.375,2.0,11,12.91229879375,77.6446712375
19TH MAIN ROAD PARK SQUARE APARTMENT SECTOR 4 HSR LAYOUT BENGALURU KARNATAKA PIN560102 INDIA,ROAD_SEGMENT,22,1.1363636363636365,2.772727272727273,6,12.920507927272725,77.6450481409091
19TH MAIN ROAD PARK SQUARE SECTOR 4 HSR LAYOUT BENGALURU KARNATAKA PIN560102 INDIA,ROAD_SEGMENT,9,1.1111111111111112,3.0,5,12.919360233333332,77.64493386666668
19TH MAIN ROAD RIECHS LAYOUT KURUBARAHALLI BENGALURU KARNATAKA PIN560086 INDIA,ROAD_SEGMENT,5,3.6,3.8,4,13.0060337,77.52949348
19TH MAIN ROAD SECTOR 2 HSR LAYOUT BENGALURU KARNATAKA PIN560102 INDIA,ROAD_SEGMENT,42,1.0238095238095237,1.4761904761904763,2,12.909665038095238,77.64455912380951
19TH MAIN ROAD SECTOR 2 HSR LAYOUT BENGALURU SOUTH CITY CORPORATION BENGALURU BANGALORE SOUTH BENGALURU URBAN KARNATAKA 560102 INDIA,ROAD_SEGMENT,1,1.0,3.0,1,12.9088969,77.6444654
19TH MAIN ROAD SECTOR 4 HSR LAYOUT BENGALURU KARNATAKA PIN560102 INDIA,ROAD_SEGMENT,3,1.6666666666666667,3.0,3,12.916951166666665,77.64479743333334
1ST A CROSS ROAD ANNAYAPPA COLONY HAL STAGE 3 NEW THIPPASANDRA BENGALURU KARNATAKA PIN560075 INDIA,ROAD_SEGMENT,4,1.0,1.0,1,12.9718761,77.6552512
1ST A CROSS ROAD BLOCK 11 MARILINGAPPA LAYOUT NAGARBHAVI STAGE 2 BENGALURU KARNATAKA PIN560072 INDIA,ROAD_SEGMENT,2,3.0,3.0,2,12.97094635,77.507335
1ST A CROSS ROAD GREEN GLEN LAYOUT BELLANDUR BENGALURU KARNATAKA PIN560103 INDIA,ROAD_SEGMENT,8,1.875,1.25,1,12.92597015,77.669742725
1ST A CROSS ROAD JJR NAGAR CIRCLE JJR NAGAR NORTH BENGALURU KARNATAKA PIN560018 INDIA,ROAD_SEGMENT,1,5.0,1.0,1,12.9644486,77.5551449
1ST A CROSS ROAD KORAMANGALA 7TH BLOCK A ADUGODI BENGALURU SOUTH CITY CORPORATION BENGALURU BANGALORE SOUTH BENGALURU URBAN KARNATAKA 560095 INDIA,ROAD_SEGMENT,1,1.0,3.0,1,12.9334451,77.6226768
1ST A CROSS ROAD KOWDENAHALLI EXTENSION RAMAMURTHI NAGAR BENGALURU KARNATAKA PIN560016 INDIA,ROAD_SEGMENT,1,2.0,2.0,1,13.0211927,77.6787112
1ST A CROSS ROAD MICHAELPALYA INDIRANAGAR BENGALURU KARNATAKA PIN560038 INDIA,ROAD_SEGMENT,1,1.0,1.0,1,12.9791307,77.6441063
1ST A CROSS ROAD MUSLIM COLONY JAYANAGAR EAST BENGALURU KARNATAKA PIN560011 INDIA,ROAD_SEGMENT,1,1.0,1.0,1,12.9357925,77.5926466
1ST A CROSS ROAD SRI CHIGARU MARAPPA CIRCLE VIRUPAKSHAPURA BENGALURU KARNATAKA PIN560097 INDIA,ROAD_SEGMENT,4,3.0,3.25,2,13.063563949999999,77.572062775
1ST A CROSS ROAD VIDYANAGAR BOMMASANDRA BENGALURU KARNATAKA PIN560099 INDIA,ROAD_SEGMENT,14,4.214285714285714,3.4285714285714284,4,12.823071364285713,77.68558374285715
1ST A CROSS ROAD VIJETHA LAPIS LAZATI BROOKEFIELD BENGALURU KARNATAKA PIN560037 INDIA,ROAD_SEGMENT,1,2.0,3.0,1,12.9666533,77.717945
1ST A MAIN ROAD BILLIARDS JUNCTION VIJAYA NAGAR STAGE 2 BENGALURU KARNATAKA PIN560040 INDIA,ROAD_SEGMENT,24,1.9166666666666667,1.1666666666666667,2,12.967187841666666,77.542642325
1ST A MAIN ROAD BINNY LAYOUT VIJAYA NAGAR STAGE 2 BENGALURU KARNATAKA PIN560040 INDIA,ROAD_SEGMENT,14,1.6428571428571428,1.6428571428571428,6,12.966766114285715,77.54372007857144
1ST A MAIN ROAD BLOCK 8 KORAMANGALA BENGALURU KARNATAKA PIN560095 INDIA,ROAD_SEGMENT,6,1.8333333333333333,1.3333333333333333,2,12.940297983333332,77.61980138333332
1ST A MAIN ROAD EWS 2ND STAGE YELAHANKA NEW TOWN BENGALURU KARNATAKA PIN560064 INDIA,ROAD_SEGMENT,6,2.0,2.0,2,13.095245016666667,77.58315583333334
1ST A MAIN ROAD JAGAJYOTHI LAYOUT NAGADEVANAHALLI BENGALURU KARNATAKA PIN560056 INDIA,ROAD_SEGMENT,2,1.0,3.0,1,12.942268200000001,77.4955338
1ST A MAIN ROAD KEMPEGOWDA LAYOUT LAGGERE BENGALURU KARNATAKA PIN560058 INDIA,ROAD_SEGMENT,5,1.8,4.2,3,13.001964019999999,77.52576237999999
1ST A MAIN ROAD KHB COLONY BLOCK 5 KORAMANGALA BENGALURU KARNATAKA PIN560095 INDIA,ROAD_SEGMENT,13,2.0,3.0,6,12.936779876923076,77.61735010769232
1ST A MAIN ROAD KT NAGAPPA REDDY LAYOUT DODDAKANNELLI BENGALURU KARNATAKA PIN560035 INDIA,ROAD_SEGMENT,1,2.0,3.0,1,12.9080977,77.693584
1ST A MAIN ROAD RAJIV GANDHI NAGAR BOMMANAHALLI BENGALURU KARNATAKA PIN560068 INDIA,ROAD_SEGMENT,6,2.0,2.5,4,12.910594099999999,77.62704006666667
1ST A MAIN ROAD SECTOR B YELAHANKA NEW TOWN BENGALURU KARNATAKA PIN560064 INDIA,ROAD_SEGMENT,30,1.7666666666666666,1.6666666666666667,7,13.098268913333333,77.58426127333334
1ST A MAIN ROAD SINGASANDRA BENGALURU KARNATAKA PIN560068 INDIA,ROAD_SEGMENT,2,2.0,4.0,1,12.8770885,77.6475969
1ST A MAIN ROAD VIJAY MANSION RPC LAYOUT VIJAYA NAGAR STAGE 2 BENGALURU KARNATAKA PIN560040 INDIA,ROAD_SEGMENT,3,2.0,3.0,1,12.967540366666666,77.54154293333333
1ST ANJANEYA TEMPLE STREET KRISHNA BLOCK MALLESHWARAM BENGALURU KARNATAKA PIN560020 INDIA,ROAD_SEGMENT,3,1.0,1.0,1,12.9927589,77.5743565
1ST B CROSS ROAD HALE DEVASANDRA KR PURAM BENGALURU KARNATAKA PIN560036 INDIA,ROAD_SEGMENT,1,2.0,3.0,1,13.0041486,77.7012655
1ST B MAIN ROAD BINNY LAYOUT VIJAYA NAGAR STAGE 2 BENGALURU KARNATAKA PIN560040 INDIA,ROAD_SEGMENT,1,2.0,1.0,1,12.9660567,77.5444862
1ST B MAIN ROAD CARLTON TOWERS HAL STAGE 2 INDIRANAGAR BENGALURU KARNATAKA PIN560008 INDIA,ROAD_SEGMENT,1,1.0,3.0,1,12.9703714,77.6455927
1ST C CROSS ROAD GOPALAN ARISTOCRAT KASTURI NAGAR BANASWADI BENGALURU KARNATAKA PIN560043 INDIA,ROAD_SEGMENT,1,1.0,3.0,1,13.0019555,77.6615228
1ST C MAIN ROAD BLOCK 1 NANDINI LAYOUT BENGALURU KARNATAKA PIN560096 INDIA,ROAD_SEGMENT,25,1.76,3.2,7,13.020067564000001,77.531856268
1ST C MAIN ROAD VYSYA BANK COLONY BTM LAYOUT STAGE 2 BENGALURU KARNATAKA PIN560076 INDIA,ROAD_SEGMENT,1,1.0,1.0,1,12.9132897,77.6033046
1ST CROSS ROAD ACR TOWERS SHANTHALA NAGAR BENGALURU KARNATAKA PIN560001 INDIA,ROAD_SEGMENT,3,1.0,3.0,2,12.973108033333332,77.60948073333333
1ST CROSS ROAD ADARSH RHYTHM PANDURANGA NAGAR BENGALURU KARNATAKA PIN560076 INDIA,ROAD_SEGMENT,2,1.0,3.0,2,12.893937050000002,77.59844575
1ST CROSS ROAD AECS LAYOUT B BLOCK BROOKEFIELD PRIYADARSHINI WARD BENGALURU EAST CITY CORPORATION BENGALURU BANGALORE EAST BENGALURU URBAN KARNATAKA 560037 INDIA,ROAD_SEGMENT,1,5.0,1.0,1,12.9650123,77.7175859
1ST CROSS ROAD AISSHWARYA EXCELLENCY JYOTHIPURAM MAHADEVAPURA BENGALURU KARNATAKA PIN560016 INDIA,ROAD_SEGMENT,8,2.0,3.75,5,12.9982578625,77.6711038375
1ST CROSS ROAD AKKIMAKALAMNA GUDI COTTONPETE BENGALURU KARNATAKA PIN560053 INDIA,ROAD_SEGMENT,1,5.0,3.0,1,12.9691205,77.5681515
1ST CROSS ROAD AMAR REGENCY LAYOUT HORAMAVU BENGALURU KARNATAKA PIN560043 INDIA,ROAD_SEGMENT,1,1.0,1.0,1,13.0238574,77.6584648
1ST CROSS ROAD ANANDGIRI EXTENSION HEBBAL BENGALURU KARNATAKA PIN560024 INDIA,ROAD_SEGMENT,1,2.0,1.0,1,13.0371056,77.5912512
1ST CROSS ROAD ANJANAPURA UPAVALAYA GOTTIGERE BENGALURU KARNATAKA PIN560083 INDIA,ROAD_SEGMENT,2,1.0,2.5,2,12.858253509926875,77.58939196178247
1ST CROSS ROAD ANNAPURNESHWARI INDUSTRIAL AREA MAGADI ROAD AREA BENGALURU KARNATAKA PIN560023 INDIA,ROAD_SEGMENT,3,1.0,1.0,2,12.9760935,77.5598735
1ST CROSS ROAD APOORVA LAYOUT NAGARBHAVI STAGE 2 BENGALURU KARNATAKA PIN560072 INDIA,ROAD_SEGMENT,1,5.0,4.0,1,12.9603381,77.5056736
1ST CROSS ROAD APPLE SPIRE PANTARAPALYA BENGALURU KARNATAKA PIN560039 INDIA,ROAD_SEGMENT,1,2.0,3.0,1,12.9417415,77.5248932
1ST CROSS ROAD ASHOK NAGAR ASHOKANAGAR BENGALURU CENTRAL CITY CORPORATION BENGALURU BANGALORE NORTH BENGALURU URBAN KARNATAKA 560025 INDIA,ROAD_SEGMENT,1,1.0,3.0,1,12.973095,77.609475
1ST CROSS ROAD ASHWATH NAGAR MARATHAHALLI BENGALURU KARNATAKA PIN560037 INDIA,ROAD_SEGMENT,4,4.0,1.0,2,12.957745175,77.7010523
1ST CROSS ROAD AYYAPPA LAYOUT MARATHAHALLI BENGALURU KARNATAKA PIN560037 INDIA,ROAD_SEGMENT,1,5.0,3.0,1,12.9550844,77.7044467
1ST CROSS ROAD BASAPPA LAYOUT SANJAY NAGAR BENGALURU KARNATAKA PIN560094 INDIA,ROAD_SEGMENT,2,2.0,1.0,1,13.0377443,77.5748838
1ST CROSS ROAD BASAVANAGUDI NR COLONY BENGALURU WEST CITY CORPORATION BENGALURU BANGALORE NORTH BENGALURU URBAN KARNATAKA 560004 INDIA,ROAD_SEGMENT,1,1.0,1.0,1,12.9398257,77.5666027
1ST CROSS ROAD BDA APARTMENTS HAL STAGE 3 NEW THIPPASANDRA BENGALURU KARNATAKA PIN560075 INDIA,ROAD_SEGMENT,1,1.0,3.0,1,12.9728766,77.6569785
1ST CROSS ROAD BELLANDUR CIRCLE BELLANDUR BENGALURU KARNATAKA PIN560103 INDIA,ROAD_SEGMENT,3,1.0,2.6666666666666665,3,12.926585266666669,77.6765707
1ST CROSS ROAD BKL COLONY BOMMANAHALLI BENGALURU KARNATAKA PIN560068 INDIA,ROAD_SEGMENT,3,1.6666666666666667,3.0,3,12.905655633333334,77.63040663333334
1ST CROSS ROAD BLOCK 1 JP NAGAR PHASE 9 BENGALURU KARNATAKA PIN560062 INDIA,ROAD_SEGMENT,3,2.0,1.0,1,12.8712858,77.5702791
1ST CROSS ROAD BLOCK 1 KORAMANGALA BENGALURU KARNATAKA PIN560034 INDIA,ROAD_SEGMENT,9,1.0,1.3333333333333333,1,12.930106511111111,77.63328080000001
1ST CROSS ROAD BLOCK 2 KORAMANGALA BENGALURU KARNATAKA PIN560068 INDIA,ROAD_SEGMENT,122,1.0081967213114753,3.040983606557377,15,12.92580666557377,77.61916429016394
1ST CROSS ROAD BLOCK 5 KORAMANGALA BENGALURU KARNATAKA PIN560095 INDIA,ROAD_SEGMENT,13,1.2307692307692308,2.1538461538461537,7,12.933700215384617,77.61943391538462
1ST CROSS ROAD BLOCK 5A KORAMANGALA BENGALURU KARNATAKA PIN560095 INDIA,ROAD_SEGMENT,21,1.2857142857142858,2.238095238095238,11,12.933552490476192,77.62269198571428
1ST CROSS ROAD BLOCK 6 PADARAYANAPURA BENGALURU KARNATAKA PIN560026 INDIA,ROAD_SEGMENT,10,1.0,1.0,6,12.96428795,77.5535661
1ST CROSS ROAD BLOCK G SAHAKARA NAGAR BENGALURU KARNATAKA PIN560092 INDIA,ROAD_SEGMENT,11,2.0,3.0,6,13.062577681818182,77.59275491818181
1ST CROSS ROAD BM SRI CIRCLE INDIRANAGAR BENGALURU KARNATAKA PIN560038 INDIA,ROAD_SEGMENT,9,1.2222222222222223,1.6666666666666667,4,12.978231577777779,77.64164603333333
1ST CROSS ROAD BOVI COLONY SADDUGUNTEPALYA BENGALURU KARNATAKA PIN560029 INDIA,ROAD_SEGMENT,1,2.0,3.0,1,12.9294569,77.6094426
1ST CROSS ROAD BRIGADE LAKE FRONT HOODI BENGALURU KARNATAKA PIN560048 INDIA,ROAD_SEGMENT,1,2.0,4.0,1,12.9810025,77.7123049
1ST CROSS ROAD BRIGADE TECH GARDENS BROOKEFIELD BENGALURU KARNATAKA PIN560037 INDIA,ROAD_SEGMENT,14,1.7857142857142858,1.3571428571428572,6,12.964911435714285,77.71789839285714
1ST CROSS ROAD CHIKKA ADUGODI SADDUGUNTEPALYA BENGALURU KARNATAKA PIN560029 INDIA,ROAD_SEGMENT,4,3.25,2.0,4,12.92807625,77.60906374999999
1ST CROSS ROAD CHIKKABANAVARA BENGALURU KARNATAKA PIN560090 INDIA,ROAD_SEGMENT,1,2.0,5.0,1,13.0797,77.5033583
1ST CROSS ROAD CHIKKABIDARAKALLU BENGALURU KARNATAKA PIN560073 INDIA,ROAD_SEGMENT,6,1.8333333333333333,2.6666666666666665,4,13.052589866666667,77.48660456666666
1ST CROSS ROAD CHIKKALSANDRA BENGALURU KARNATAKA PIN560061 INDIA,ROAD_SEGMENT,5,5.0,1.8,2,12.909485820576311,77.55114997479343
1ST CROSS ROAD CONCORDE SILICON VALLEY MARAGONDANAHALLI ELECTRONIC CITY BANGALORE SOUTH BENGALURU URBAN KARNATAKA 560100 INDIA,ROAD_SEGMENT,2,2.0,3.0,1,12.8405557,77.6510376
1ST CROSS ROAD DEVASANDRA JUNCTION KR PURAM BENGALURU KARNATAKA PIN560036 INDIA,ROAD_SEGMENT,74,2.7972972972972974,1.8243243243243243,35,13.007898417567567,77.6957883135135
1ST CROSS ROAD DODDAMMA INDUSTRIAL LAYOUT HULIMAVU BENGALURU KARNATAKA PIN560076 INDIA,ROAD_SEGMENT,1,1.0,3.0,1,12.8781774,77.5972224
1ST CROSS ROAD DR APJ ABDUL KALAM ENCLAVE MARATHAHALLI BENGALURU KARNATAKA PIN560037 INDIA,ROAD_SEGMENT,1,2.0,2.0,1,12.9677573,77.702675
1ST CROSS ROAD DSR RR AVENUES YELAHANKA BENGALURU KARNATAKA PIN560064 INDIA,ROAD_SEGMENT,1,2.0,5.0,1,13.1060868,77.5814602
1ST CROSS ROAD ELEGANT ESPLANDE BEML LAYOUT STAGE 7 MYLASANDARA BENGALURU KARNATAKA PIN560098 INDIA,ROAD_SEGMENT,3,1.0,1.0,1,12.9165099,77.5003422
1ST CROSS ROAD ESTEEM GARDENIA SAHAKARA NAGAR BENGALURU KARNATAKA PIN560092 INDIA,ROAD_SEGMENT,1,2.0,3.0,1,13.0590804,77.5926355
1ST CROSS ROAD GANESHA MANDIRA CIRCLE AIRPORT AREA BENGALURU KARNATAKA PIN560017 INDIA,ROAD_SEGMENT,2,3.0,1.5,2,12.959117599999999,77.6573979
1ST CROSS ROAD GOPALAN GRAND MALL NAGAVARA PALYA CV RAMAN NAGAR BENGALURU KARNATAKA PIN560093 INDIA,ROAD_SEGMENT,10,1.4,1.4,7,12.99360246,77.66330533
1ST CROSS ROAD GOVINDA REDDY LAYOUT ARAKERE BENGALURU KARNATAKA PIN560076 INDIA,ROAD_SEGMENT,2,1.0,2.5,2,12.891171799999999,77.59485845
1ST CROSS ROAD HAL STAGE 2 INDIRANAGAR BENGALURU KARNATAKA PIN560008 INDIA,ROAD_SEGMENT,3,3.6666666666666665,2.3333333333333335,2,12.970168199999998,77.64200273333334
1ST CROSS ROAD HANUMANTHARAYAN PALYA SUNKADAKATTE BENGALURU KARNATAKA PIN560091 INDIA,ROAD_SEGMENT,10,1.4,1.2,4,12.98944234,77.50090272
1ST CROSS ROAD HM GLADIOLUS YELLAPPA CHETTY LAYOUT SIVANCHETTI GARDENS BENGALURU KARNATAKA PIN560042 INDIA,ROAD_SEGMENT,2,1.0,2.0,1,12.9749967,77.6184456
1ST CROSS ROAD HOODI LAYOUT JAKKURU BENGALURU KARNATAKA PIN560092 INDIA,ROAD_SEGMENT,1,2.0,3.0,1,13.0704376,77.5926434
1ST CROSS ROAD HSR LAYOUT 27TH MAIN JUNCTION HSR LAYOUT BENGALURU KARNATAKA PIN560102 INDIA,ROAD_SEGMENT,9,1.3333333333333333,2.7777777777777777,6,12.922703488888889,77.65143107777777
1ST CROSS ROAD IAS LAYOUT HARALUR BENGALURU KARNATAKA PIN560035 INDIA,ROAD_SEGMENT,7,1.8571428571428572,1.2857142857142858,2,12.904945128571429,77.67589634285714
1ST CROSS ROAD IDEAL HOME TOWNSHIP RAJARAJESHWARI NAGAR BENGALURU KARNATAKA PIN560098 INDIA,ROAD_SEGMENT,6,2.0,3.1666666666666665,6,12.932769483333333,77.51594793333334
1ST CROSS ROAD INDIRANAGAR BENGALURU KARNATAKA PIN560008 INDIA,ROAD_SEGMENT,1,5.0,3.0,1,12.9719929,77.6405331
1ST CROSS ROAD ITI LAYOUT BANASHANKARI STAGE 3 BENGALURU KARNATAKA PIN560085 INDIA,ROAD_SEGMENT,1,2.0,3.0,1,12.9328515,77.5571985
1ST CROSS ROAD ITI LAYOUT CHANDRA LAYOUT STAGE 1 BENGALURU KARNATAKA PIN560072 INDIA,ROAD_SEGMENT,2,3.5,4.0,2,12.94982385,77.52184955
1ST CROSS ROAD JALADARSHINI LAYOUT RMV STAGE 2 BENGALURU KARNATAKA PIN560094 INDIA,ROAD_SEGMENT,1,2.0,3.0,1,13.0319373,77.5729551
1ST CROSS ROAD JALAHALLI CROSS T DASARAHALLI BENGALURU KARNATAKA PIN560057 INDIA,ROAD_SEGMENT,2,2.5,2.0,2,13.03904675,77.51812534999999
1ST CROSS ROAD JEEVAN BIMA NAGAR BENGALURU KARNATAKA PIN560075 INDIA,ROAD_SEGMENT,74,2.7162162162162162,2.5,4,12.966859652702704,77.65823421891892
1ST CROSS ROAD JYOTHIPURAM MAHADEVAPURA BENGALURU KARNATAKA PIN560016 INDIA,ROAD_SEGMENT,12,1.9166666666666667,3.1666666666666665,7,12.99842355,77.67186775833333
1ST CROSS ROAD KC CIRCLE CHUNCHGATTA BENGALURU KARNATAKA PIN560062 INDIA,ROAD_SEGMENT,1,2.0,2.0,1,12.8860909,77.5706063
1ST CROSS ROAD KEERTHI FLORA APARTMENT KUNDALHALLI BENGALURU KARNATAKA PIN560037 INDIA,ROAD_SEGMENT,1,2.0,2.0,1,12.9692436,77.7126912
1ST CROSS ROAD KENGUNTE CIRCLE BENGALURU KARNATAKA PIN560056 INDIA,ROAD_SEGMENT,1,1.0,3.0,1,12.9605516,77.5043276
1ST CROSS ROAD KGE LAYOUT RMV STAGE 2 BENGALURU KARNATAKA PIN560094 INDIA,ROAD_SEGMENT,1,2.0,3.0,1,13.02846,77.5720213
1ST CROSS ROAD KHANESHUMAARI HEBBAL BENGALURU KARNATAKA PIN560024 INDIA,ROAD_SEGMENT,16,1.125,1.3125,4,13.039338412500001,77.5897448375
1ST CROSS ROAD KHB COLONY BLOCK 5 KORAMANGALA BENGALURU KARNATAKA PIN560095 INDIA,ROAD_SEGMENT,1,1.0,3.0,1,12.9336307,77.6180815
1ST CROSS ROAD KHM BLOCK GANGA NAGAR BENGALURU KARNATAKA PIN560032 INDIA,ROAD_SEGMENT,1,2.0,3.0,1,13.0226079,77.592749
1ST CROSS ROAD KODIHALLI BENGALURU KARNATAKA PIN560008 INDIA,ROAD_SEGMENT,1,1.0,2.0,1,12.9617779,77.6496625
1ST CROSS ROAD KOMARLA BRIGADE RESIDENCY CHIKKALSANDRA BENGALURU KARNATAKA PIN560061 INDIA,ROAD_SEGMENT,7,4.571428571428571,2.857142857142857,4,12.911358146382522,77.55203460967228
1ST CROSS ROAD KORAMANGALA WATER TANK JUNCTION KORAMANGALA BENGALURU KARNATAKA PIN560034 INDIA,ROAD_SEGMENT,7,2.0,1.8571428571428572,7,12.927508028571427,77.62142737142858
1ST CROSS ROAD KRIMSON SQUARE MUNESHWARA NAGAR HSR LAYOUT BENGALURU KARNATAKA PIN560102 INDIA,ROAD_SEGMENT,1,1.0,1.0,1,12.91115,77.625965
1ST CROSS ROAD KUMAR PARK VASANT NAGAR BENGALURU KARNATAKA PIN560001 INDIA,ROAD_SEGMENT,57,1.9473684210526316,1.105263157894737,7,12.99482357017544,77.58987419473684
1ST CROSS ROAD KUVEMPU NAGAR KR PURAM BENGALURU KARNATAKA PIN560036 INDIA,ROAD_SEGMENT,1,1.0,1.0,1,13.0060611,77.7021478
1ST CROSS ROAD KV MUNIYAPPA LAYOUT KR PURAM BENGALURU KARNATAKA PIN560036 INDIA,ROAD_SEGMENT,15,1.2666666666666666,2.066666666666667,10,13.00933286,77.69310998
1ST CROSS ROAD LAXMANA LAYOUT HALASURU BENGALURU KARNATAKA PIN560008 INDIA,ROAD_SEGMENT,2,2.5,2.0,2,12.9815509,77.62832545
1ST CROSS ROAD LIDO MALL SOMESHWARPURA HALASURU BENGALURU KARNATAKA PIN560008 INDIA,ROAD_SEGMENT,1,1.0,2.0,1,12.9720935,77.6230403
1ST CROSS ROAD MADIWALA JUNCTION MADIVALA BENGALURU KARNATAKA PIN560068 INDIA,ROAD_SEGMENT,7,1.0,3.2857142857142856,3,12.926047814285713,77.61807002857142
1ST CROSS ROAD MAGADHA BENGALURU KARNATAKA PIN560016 INDIA,ROAD_SEGMENT,1,1.0,1.0,1,12.9946062,77.6631075
1ST CROSS ROAD MAHARAJA JUNCTION KORAMANGALA BENGALURU KARNATAKA PIN560034 INDIA,ROAD_SEGMENT,5,1.4,2.4,4,12.9345599,77.62988522
1ST CROSS ROAD MALLATHAHALLI NEW EXTENSION MALLATHAHALLI BENGALURU KARNATAKA PIN560056 INDIA,ROAD_SEGMENT,6,2.0,3.0,1,12.9608584,77.5023634
1ST CROSS ROAD MANGO GARDEN BIKASPURA BENGALURU KARNATAKA PIN560062 INDIA,ROAD_SEGMENT,8,1.0,1.0,1,12.8935967,77.5628
1ST CROSS ROAD MANJUNATHANAGARA NEW EXTENSION BAGALAGUNTE BENGALURU KARNATAKA PIN560073 INDIA,ROAD_SEGMENT,2,2.0,1.0,1,13.0516783,77.4935943
1ST CROSS ROAD MANUVANA VIJAYA NAGAR BENGALURU KARNATAKA PIN560040 INDIA,ROAD_SEGMENT,1,2.0,4.0,1,12.9642194,77.5422497
1ST CROSS ROAD MARATHAHALLI BENGALURU KARNATAKA PIN560037 INDIA,ROAD_SEGMENT,1,2.0,2.0,1,12.9570767,77.700425
1ST CROSS ROAD MARIYAPPA LAYOUT KADUBISANAHALLI BENGALURU KARNATAKA PIN560103 INDIA,ROAD_SEGMENT,7,3.5714285714285716,2.2857142857142856,7,12.938602571428572,77.69818225714286
1ST CROSS ROAD MARUTHI EMERALD THUBARAHALLI BENGALURU KARNATAKA PIN560066 INDIA,ROAD_SEGMENT,9,2.0,2.4444444444444446,6,12.9603334,77.71627472222222
1ST CROSS ROAD MARUTHI NAGAR NAGASHETTY HALLI RMV STAGE 2 BENGALURU KARNATAKA PIN560094 INDIA,ROAD_SEGMENT,1,2.0,3.0,1,13.049975,77.575745
1ST CROSS ROAD MEANEE AVENUE LAYOUT FRAZER TOWN BENGALURU KARNATAKA PIN560005 INDIA,ROAD_SEGMENT,2,1.0,3.0,1,12.9878295,77.6180794
1ST CROSS ROAD MILK COLONY SUBRAMANYA NAGAR STAGE 2 RAJAJI NAGAR BENGALURU KARNATAKA PIN560055 INDIA,ROAD_SEGMENT,1,2.0,1.0,1,13.0081694,77.5600349
1ST CROSS ROAD MILL CORNER JUNCTION SESHADRIPURAM BENGALURU KARNATAKA PIN560020 INDIA,ROAD_SEGMENT,38,1.5,2.4473684210526314,18,12.994254394736842,77.57145296052632
1ST CROSS ROAD MOUNT JOY EXTENSION HANUMANTHA NAGAR BENGALURU KARNATAKA PIN560004 INDIA,ROAD_SEGMENT,2,1.5,3.0,2,12.939828122002755,77.56502268894769
1ST CROSS ROAD MS REDDY NAGAR MARATHAHALLI BENGALURU KARNATAKA PIN560037 INDIA,ROAD_SEGMENT,9,3.2222222222222223,3.0,4,12.956642377777777,77.70262395555557
1ST CROSS ROAD MUNIYAPPA LAYOUT NAGASHETTY HALLI RMV STAGE 2 BENGALURU KARNATAKA PIN560094 INDIA,ROAD_SEGMENT,8,2.0,1.75,3,13.0475475875,77.5748916125
1ST CROSS ROAD MUTHUKURAPPA COLONY MAHADEVAPURA BENGALURU KARNATAKA PIN560048 INDIA,ROAD_SEGMENT,4,3.0,1.5,3,12.994894175,77.697630975
1ST CROSS ROAD MYLASANDRA VILLAGE MYLASANDARA BENGALURU KARNATAKA PIN560059 INDIA,ROAD_SEGMENT,1,1.0,1.0,1,12.9167903,77.5001375
1ST CROSS ROAD NADA PRABHU KEMPEGOWDA CIRCLE NEW THIPPASANDRA BENGALURU KARNATAKA PIN560075 INDIA,ROAD_SEGMENT,80,1.0625,2.5875,27,12.972011644613037,77.65797482404379
1ST CROSS ROAD NAGAPPA REDDY LAYOUT AECS LAYOUT KUNDALHALLI BENGALURU KARNATAKA PIN560037 INDIA,ROAD_SEGMENT,1,2.0,2.0,1,12.9603863,77.716404
1ST CROSS ROAD NANJAMMA LAYOUT KR PURAM BENGALURU KARNATAKA PIN560036 INDIA,ROAD_SEGMENT,15,4.8,2.466666666666667,6,13.008045546666667,77.69676450666665
1ST CROSS ROAD NANJAPPA CIRCLE THINDLU BENGALURU KARNATAKA PIN560097 INDIA,ROAD_SEGMENT,1,1.0,1.0,1,13.0686047,77.5595112
1ST CROSS ROAD NAVARATAN GARDENS DODDAKALLASANDRA BENGALURU KARNATAKA PIN560062 INDIA,ROAD_SEGMENT,1,1.0,2.0,1,12.8837682,77.5512685
1ST CROSS ROAD NC COLONY BENSON TOWN BENGALURU KARNATAKA PIN560046 INDIA,ROAD_SEGMENT,2,1.5,3.5,2,13.002200250000001,77.6118638
1ST CROSS ROAD NEHRU CIRCLE SESHADRIPURAM BENGALURU KARNATAKA PIN560020 INDIA,ROAD_SEGMENT,6,1.0,1.6666666666666667,2,12.989054566666667,77.57586723333333
1ST CROSS ROAD NEHRU NAGAR SESHADRIPURAM BENGALURU KARNATAKA PIN560020 INDIA,ROAD_SEGMENT,1,1.0,3.0,1,12.9887323,77.5757119
1ST CROSS ROAD NETRAVATI ENCLAVE ADUGODI POLICE QUARTERS ADUGODI BENGALURU KARNATAKA PIN560030 INDIA,ROAD_SEGMENT,2,2.0,2.5,1,12.9401336,77.614233
1ST CROSS ROAD NEWARK SPRINGS VALLIYAMMA LAYOUT HARALUR BENGALURU KARNATAKA PIN560035 INDIA,ROAD_SEGMENT,1,2.0,4.0,1,12.9106905,77.6765507
1ST CROSS ROAD NR COLONY BASAVANAGUDI BENGALURU KARNATAKA PIN560004 INDIA,ROAD_SEGMENT,2,1.0,3.0,1,12.93979165,77.56602375
1ST CROSS ROAD OZONE WF 48 LAKSHMISAGAR LAYOUT MAHADEVAPURA BENGALURU KARNATAKA PIN560048 INDIA,ROAD_SEGMENT,5,1.8,1.8,5,12.99415032,77.69486520000001
1ST CROSS ROAD PATEL CHANNAPPA CIRCLE BOMMANAHALLI BENGALURU KARNATAKA PIN560068 INDIA,ROAD_SEGMENT,1,2.0,4.0,1,12.9060685,77.6386413
1ST CROSS ROAD PATEL PILLE GOWDA LAYOUT RAMCHANDRAPURA BENGALURU KARNATAKA PIN560013 INDIA,ROAD_SEGMENT,1,1.0,3.0,1,13.0664254,77.5524418
1ST CROSS ROAD PEENYA SRS PEENYA BENGALURU KARNATAKA PIN560058 INDIA,ROAD_SEGMENT,8,2.0,2.5,3,13.0346991125,77.517999275
1ST CROSS ROAD POLICE QUARTERS SINGAYYANAPALYA DYAVASANDRA INDUSTRIAL ESTATE PHASE 2 MAHADEVAPURA BENGALURU KARNATAKA PIN560048 INDIA,ROAD_SEGMENT,8,2.375,2.0,2,12.99696415,77.692917025
1ST CROSS ROAD POLICE QUARTERS STAGE 1 KENGERI SATELLITE TOWN BENGALURU KARNATAKA PIN560060 INDIA,ROAD_SEGMENT,1,1.0,3.0,1,12.9110176,77.4800517
1ST CROSS ROAD POLISAPPA LAYOUT SINGASANDRA BENGALURU KARNATAKA PIN560068 INDIA,ROAD_SEGMENT,9,2.0,3.888888888888889,6,12.88645070626881,77.64103988443594
1ST CROSS ROAD POSTAL OFFICERS QUARTERS HAL STAGE 3 NEW THIPPASANDRA BENGALURU KARNATAKA PIN560075 INDIA,ROAD_SEGMENT,2,1.0,3.0,1,12.9801091,77.6457619
1ST CROSS ROAD PRATHAM CASA SERENE T DASARAHALLI BENGALURU KARNATAKA PIN560057 INDIA,ROAD_SEGMENT,1,2.0,2.0,1,13.0409987,77.518846
1ST CROSS ROAD PUTTANNA JUNCTION FRAZER TOWN BENGALURU KARNATAKA PIN560005 INDIA,ROAD_SEGMENT,1,2.0,1.0,1,13.0021392,77.6118694
1ST CROSS ROAD RAJIV GANDHI NAGAR NANDINI LAYOUT BENGALURU KARNATAKA PIN560096 INDIA,ROAD_SEGMENT,6,2.0,3.5,1,13.017883099999999,77.53919013333332
1ST CROSS ROAD RAMAIAH REDDY LAYOUT SINGASANDRA BENGALURU KARNATAKA PIN560068 INDIA,ROAD_SEGMENT,9,2.0,3.7777777777777777,4,12.885291884737057,77.64121718352027
1ST CROSS ROAD RAMAMOHANAPURAM GAYATRI NAGAR BENGALURU KARNATAKA PIN560021 INDIA,ROAD_SEGMENT,3,1.6666666666666667,3.3333333333333335,2,12.998709499999999,77.56443383333333
1ST CROSS ROAD RANKA COURT HALASURU BENGALURU KARNATAKA PIN560008 INDIA,ROAD_SEGMENT,68,1.0735294117647058,2.9558823529411766,38,12.97219439117647,77.62581596617646
1ST CROSS ROAD RAVI KIRLOSKAR LAYOUT CHIKKABIDARAKALLU BENGALURU KARNATAKA PIN560073 INDIA,ROAD_SEGMENT,5,2.0,3.2,1,13.052928399999999,77.48671722
1ST CROSS ROAD RENAISSANCE PARK 1 MALLESHWARAM WEST BENGALURU KARNATAKA PIN560055 INDIA,ROAD_SEGMENT,4,1.75,1.5,1,13.014013775,77.557100325
1ST CROSS ROAD RENAISSANCE PROSPERO APARTMENT KASHI NAGAR BYATARAYANAPURA BENGALURU KARNATAKA PIN560092 INDIA,ROAD_SEGMENT,4,2.0,1.5,1,13.0656762,77.5944302
1ST CROSS ROAD RHBCS LAYOUT NAGARBHAVI STAGE 2 BENGALURU KARNATAKA PIN560072 INDIA,ROAD_SEGMENT,1,1.0,3.0,1,12.974763,77.5097275
1ST CROSS ROAD SALARPURIA SATTVA EAST CREST KONADASAPURA BENGALURU KARNATAKA PIN560049 INDIA,ROAD_SEGMENT,4,2.75,2.0,4,13.045485175,77.750133925
1ST CROSS ROAD SALARPURIA SATTVA SUPREME MARATHAHALLI VILLAGE MARATHAHALLI BENGALURU KARNATAKA PIN560037 INDIA,ROAD_SEGMENT,31,4.161290322580645,2.774193548387097,21,12.952400751612904,77.70024363870968
1ST CROSS ROAD SANJAY NAGAR BENGALURU KARNATAKA PIN560094 INDIA,ROAD_SEGMENT,6,2.0,1.0,2,13.037675049999999,77.57489818333333
1ST CROSS ROAD SHARADAMMA LAYOUT MUNNEKOLALA BENGALURU KARNATAKA PIN560037 INDIA,ROAD_SEGMENT,17,4.0588235294117645,4.352941176470588,10,12.951619647058823,77.70010217058824
1ST CROSS ROAD SHIKSHAKARA HBCS BASAVESHWARA NAGAR BENGALURU KARNATAKA PIN560079 INDIA,ROAD_SEGMENT,1,2.0,5.0,1,12.9951667,77.53539
1ST CROSS ROAD SHRINIKET APARTMENT MATHIKERE EXTENSION BENGALURU KARNATAKA PIN560054 INDIA,ROAD_SEGMENT,1,2.0,3.0,1,13.0300898,77.5624084
1ST CROSS ROAD SIDVIN GRACE MALLATHAHALLI BENGALURU KARNATAKA PIN560056 INDIA,ROAD_SEGMENT,1,2.0,3.0,1,12.9620354,77.4981606
1ST CROSS ROAD SILVER ENCLAVE FRAZER TOWN BENGALURU KARNATAKA PIN560005 INDIA,ROAD_SEGMENT,32,1.09375,1.5625,16,12.99552383125,77.613606421875
1ST CROSS ROAD SINDHI COLONY COX TOWN BENGALURU KARNATAKA PIN560005 INDIA,ROAD_SEGMENT,1,1.0,4.0,1,12.9948678,77.6160815
1ST CROSS ROAD SINGAYYANAPALYA MAHADEVAPURA BENGALURU KARNATAKA PIN560048 INDIA,ROAD_SEGMENT,3,1.6666666666666667,2.3333333333333335,1,12.9968943,77.6939261
1ST CROSS ROAD SKY ASTA SINGAPORE GARDENS AND GREEN FIELDS RAGHUVANAHALLI BENGALURU KARNATAKA PIN560062 INDIA,ROAD_SEGMENT,1,5.0,3.0,1,12.8827955,77.5467071
1ST CROSS ROAD SOBHA ROSE APARTMENT WHITEFIELD BENGALURU KARNATAKA PIN560066 INDIA,ROAD_SEGMENT,2,5.0,3.0,1,12.9643651,77.74887290000001
1ST CROSS ROAD SONY WORLD JUNCTION INDIRANAGAR BENGALURU KARNATAKA PIN560008 INDIA,ROAD_SEGMENT,9,1.0,1.8888888888888888,6,12.970079788888889,77.6406133
1ST CROSS ROAD SP LAYOUT MARATHAHALLI BENGALURU KARNATAKA PIN560037 INDIA,ROAD_SEGMENT,2,5.0,1.0,2,12.957809099999999,77.7008043
1ST CROSS ROAD SRADHA BRINDAVAN AECS LAYOUT KUNDALHALLI BENGALURU KARNATAKA PIN560037 INDIA,ROAD_SEGMENT,9,2.6666666666666665,1.3333333333333333,3,12.965504044444444,77.71761101111112
1ST CROSS ROAD SRI CHOWDESHWARI DEVI CIRCLE SRIRAMPURAM BENGALURU KARNATAKA PIN560021 INDIA,ROAD_SEGMENT,4,2.0,3.0,1,12.9948543,77.5658932
1ST CROSS ROAD SRI GAYATRI LAYOUT AYYAPPA NAGAR KR PURAM BENGALURU KARNATAKA PIN560036 INDIA,ROAD_SEGMENT,1,1.0,4.0,1,13.0045462,77.7151364
1ST CROSS ROAD SRI GURUKRUPA LAYOUT NAGARBHAVI STAGE 2 BENGALURU KARNATAKA PIN560072 INDIA,ROAD_SEGMENT,14,1.0,3.0,9,12.96074762142857,77.51156319285714
1ST CROSS ROAD SRI VENKATESHWARA LAYOUT PARAPPANA AGRAHARA BENGALURU KARNATAKA PIN560068 INDIA,ROAD_SEGMENT,1,2.0,3.0,1,12.8817929,77.6731186
1ST CROSS ROAD SUBHAMS ANTIQUE CITY KONADASAPURA BENGALURU KARNATAKA PIN560049 INDIA,ROAD_SEGMENT,45,2.0444444444444443,2.3777777777777778,27,13.04579702888889,77.75037157111112
1ST CROSS ROAD SUBHASH NAGAR COTTONPETE BENGALURU KARNATAKA PIN560053 INDIA,ROAD_SEGMENT,1,3.0,2.0,1,12.9700429,77.56853
1ST CROSS ROAD SUMNAHALLI JUNCTION KAMAKSHIPALYA BENGALURU KARNATAKA PIN560091 INDIA,ROAD_SEGMENT,3,2.0,2.3333333333333335,3,12.987178966666667,77.51886403333333
1ST CROSS ROAD SUNRISE ARUNACHALAN CIRCLE SRIRAMPURAM BENGALURU KARNATAKA PIN560021 INDIA,ROAD_SEGMENT,9,2.0,3.0,1,12.992885322222222,77.56867643333334
1ST CROSS ROAD SWATANTRA YODHARA NAGAR LAGGERE BENGALURU KARNATAKA PIN560058 INDIA,ROAD_SEGMENT,6,5.0,3.8333333333333335,4,13.004332233333335,77.52669733333333
1ST CROSS ROAD SYNDICATE BANK COLONY ARAKERE BENGALURU KARNATAKA PIN560076 INDIA,ROAD_SEGMENT,3,2.0,1.0,1,12.8846316,77.5960618
1ST CROSS ROAD T DASARAHALLI BENGALURU KARNATAKA PIN560057 INDIA,ROAD_SEGMENT,1,2.0,1.0,1,13.0438278,77.5113294
1ST CROSS ROAD TAVAREKERE BENGALURU KARNATAKA PIN560029 INDIA,ROAD_SEGMENT,5,5.0,2.6,4,12.922432319999999,77.61046896
1ST CROSS ROAD THE JUNCTION INDIRANAGAR BENGALURU KARNATAKA PIN560008 INDIA,ROAD_SEGMENT,4,3.0,2.5,4,12.97105045,77.6477014
1ST CROSS ROAD THIGALARAPALYA HOODI BENGALURU KARNATAKA PIN560048 INDIA,ROAD_SEGMENT,1,1.0,1.0,1,12.994605,77.7177614
1ST CROSS ROAD TIPPU SULTAN CIRCLE AVALAHALLI BENGALURU KARNATAKA PIN560062 INDIA,ROAD_SEGMENT,3,1.6666666666666667,2.6666666666666665,2,12.8726319,77.56655993333334
1ST CROSS ROAD TULASI LAYOUT KASAVANAHALLI BENGALURU KARNATAKA PIN560035 INDIA,ROAD_SEGMENT,2,1.0,1.0,1,12.904071850000001,77.67605574999999
1ST CROSS ROAD UDANI LAYOUT HALASURU BENGALURU KARNATAKA PIN560008 INDIA,ROAD_SEGMENT,21,1.1904761904761905,2.4285714285714284,17,12.972660395238094,77.62645942857142
1ST CROSS ROAD VAJRAM ESTEVA DEVARA BEESANA HALLI BENGALURU KARNATAKA PIN560103 INDIA,ROAD_SEGMENT,1,2.0,1.0,1,12.9292551,77.6853503
1ST CROSS ROAD VALLABHA NAGAR UTTARAHALLI BENGALURU KARNATAKA PIN560061 INDIA,ROAD_SEGMENT,1,5.0,3.0,1,12.906514250682203,77.54691584262983
1ST CROSS ROAD VALLIAPPA NAGAR BENGALURU KARNATAKA PIN560001 INDIA,ROAD_SEGMENT,16,1.9375,1.125,4,12.9922561875,77.58981804375
1ST CROSS ROAD VEERANAPALYA VILLAGE NAGAVARA BENGALURU KARNATAKA PIN560045 INDIA,ROAD_SEGMENT,1,4.0,3.0,1,13.0416949,77.6127568
1ST CROSS ROAD VIJETHA LAPIS LAZATI BROOKEFIELD BENGALURU KARNATAKA PIN560037 INDIA,ROAD_SEGMENT,1,2.0,2.0,1,12.9652806,77.7184467
1ST CROSS ROAD VINAYAKA NAGAR HEBBAL BENGALURU KARNATAKA PIN560024 INDIA,ROAD_SEGMENT,3,1.0,1.6666666666666667,3,13.034090866666666,77.58890330000001
1ST CROSS ROAD VVR SUPREME RESIDENCY CHIKKALSANDRA BENGALURU KARNATAKA PIN560061 INDIA,ROAD_SEGMENT,1,5.0,3.0,1,12.910086250517958,77.55042872
1ST CROSS ROAD WTC ANNEXE MALLESHWARAM WEST BENGALURU KARNATAKA PIN560055 INDIA,ROAD_SEGMENT,11,2.0,1.0,1,13.014492054545455,77.55670487272727
1ST CROSS ROAD YALAPPA GARDEN MALLESHWARAM BENGALURU KARNATAKA PIN560003 INDIA,ROAD_SEGMENT,1,2.0,3.0,1,12.99972,77.5732817
1ST CROSS ROAD YSM LAYOUT KR PURAM BENGALURU KARNATAKA PIN560036 INDIA,ROAD_SEGMENT,3,2.6666666666666665,2.3333333333333335,3,13.009638466666667,77.69737353333333
1ST D MAIN ROAD FREEDOM FIGHTERS COLONY LAGGERE BENGALURU KARNATAKA PIN560058 INDIA,ROAD_SEGMENT,1,1.0,2.0,1,13.0065055,77.5264355
1ST LANE SOBHA GARNET IBLUR VILLAGE BELLANDUR BENGALURU KARNATAKA PIN560102 INDIA,ROAD_SEGMENT,1,2.0,2.0,1,12.9216926,77.6652092
1ST MAIN MICO LAYOUT MICO AREKERE LAYOUT 1ST STAGE AREKERE DORESANIPALYA BENGALURU SOUTH CITY CORPORATION BENGALURU BANGALORE SOUTH BENGALURU URBAN KARNATAKA 560076 INDIA,ROAD_SEGMENT,1,1.0,3.0,1,12.8896484,77.5916645
1ST MAIN ROAD ACHARYA SRI RAMANUJA CIRCLE MALLESHWARAM BENGALURU KARNATAKA PIN560003 INDIA,ROAD_SEGMENT,2,2.0,1.0,1,13.0015543,77.57214275
1ST MAIN ROAD ADITHYA TRANQUIL JAYAMUNI NAGAR YELAHANKA BENGALURU KARNATAKA PIN560064 INDIA,ROAD_SEGMENT,3,2.0,2.0,1,13.1190442,77.60963853333334
1ST MAIN ROAD AISSHWARYA EXCELLENCY JYOTHIPURAM MAHADEVAPURA BENGALURU KARNATAKA PIN560016 INDIA,ROAD_SEGMENT,1,5.0,3.0,1,12.9982184,77.6714196
1ST MAIN ROAD AKSHAYA NAGAR NYANAPPANAHALLI DEVARACHIKANNAHALLI BENGALURU KARNATAKA PIN560068 INDIA,ROAD_SEGMENT,2,1.5,2.0,2,12.8759214,77.6169358
1ST MAIN ROAD AMALE LAYOUT RT NAGAR BENGALURU KARNATAKA PIN560032 INDIA,ROAD_SEGMENT,2,2.0,3.0,2,13.01665505,77.5910345
1ST MAIN ROAD AMBEDKAR LAYOUT KP AGRAHARA BENGALURU KARNATAKA PIN560023 INDIA,ROAD_SEGMENT,2,1.0,3.0,2,12.96620545,77.54683735
1ST MAIN ROAD AMBEDKAR NAGAR SINGASANDRA BENGALURU KARNATAKA PIN560068 INDIA,ROAD_SEGMENT,5,2.0,3.8,3,12.884008850797636,77.63979243493468
1ST MAIN ROAD ANJANAPURA UPAVALAYA GOTTIGERE BENGALURU KARNATAKA PIN560083 INDIA,ROAD_SEGMENT,1,1.0,3.0,1,12.857753,77.5890942
1ST MAIN ROAD APARNA ELINA YESHWANTHPUR BENGALURU KARNATAKA PIN560022 INDIA,ROAD_SEGMENT,2,2.0,2.0,1,13.01877925,77.5530891
1ST MAIN ROAD AREPANAHALLI WILSON GARDEN BENGALURU KARNATAKA PIN560027 INDIA,ROAD_SEGMENT,1,1.0,1.0,1,12.9374481,77.5853284
1ST MAIN ROAD ARVIND ORCHARDS DEFENCE COLONY SAHAKARA NAGAR BENGALURU KARNATAKA PIN560092 INDIA,ROAD_SEGMENT,11,1.3636363636363635,1.2727272727272727,3,13.059033745454544,77.5849764
1ST MAIN ROAD ASHRAM COLONY RMV STAGE 2 BENGALURU KARNATAKA PIN560094 INDIA,ROAD_SEGMENT,1,2.0,3.0,1,13.0306992,77.5732886
1ST MAIN ROAD ASHWATH NAGAR ARMANE NAGAR BENGALURU KARNATAKA PIN560094 INDIA,ROAD_SEGMENT,3,1.3333333333333333,2.6666666666666665,3,13.026602966666667,77.5800016
1ST MAIN ROAD ASHWATH NAGAR BENGALURU EAST CITY CORPORATION BENGALURU BANGALORE EAST BENGALURU URBAN KARNATAKA 560037 INDIA,ROAD_SEGMENT,4,2.0,2.0,4,12.959026375,77.70157915
1ST MAIN ROAD ASHWATH NAGAR MARATHAHALLI BENGALURU KARNATAKA PIN560037 INDIA,ROAD_SEGMENT,25,1.36,2.08,20,12.957938812,77.701442092
1ST MAIN ROAD ASWANI AAEESHA DODDANAGAMANGALA BENGALURU KARNATAKA PIN560100 INDIA,ROAD_SEGMENT,4,2.0,2.5,2,12.860889875,77.674689425
1ST MAIN ROAD AVEDA META BINNAMANGALA INDIRANAGAR BENGALURU KARNATAKA PIN560038 INDIA,ROAD_SEGMENT,1,2.0,1.0,1,12.9863207,77.645859
1ST MAIN ROAD B CHANNASANDRA BANASWADI BENGALURU KARNATAKA PIN560043 INDIA,ROAD_SEGMENT,3,1.0,3.0,1,13.010989933333335,77.65917343333334
1ST MAIN ROAD BALAJI CIRCLE SADDUGUNTEPALYA BENGALURU KARNATAKA PIN560029 INDIA,ROAD_SEGMENT,2,5.0,1.0,1,12.930995,77.6069617
1ST MAIN ROAD BALAJI LAYOUT SG PALYA BENGALURU SOUTH CITY CORPORATION BENGALURU BANGALORE SOUTH BENGALURU URBAN KARNATAKA 560029 INDIA,ROAD_SEGMENT,1,1.0,1.0,1,12.9308451,77.6067546
1ST MAIN ROAD BDA APARTMENTS HAL STAGE 3 NEW THIPPASANDRA BENGALURU KARNATAKA PIN560075 INDIA,ROAD_SEGMENT,29,2.1724137931034484,2.6551724137931036,9,12.972707955222633,77.65765625884656
1ST MAIN ROAD BDA LAYOUT STAGE 2 JNANA BHARATHI BENGALURU KARNATAKA PIN560056 INDIA,ROAD_SEGMENT,4,2.0,3.5,1,12.94532705,77.490358225
1ST MAIN ROAD BETHEL NAGAR KR PURAM BENGALURU KARNATAKA PIN560036 INDIA,ROAD_SEGMENT,2,5.0,2.0,2,13.004556149999999,77.71649995
1ST MAIN ROAD BHARTHI LAYOUT SADDUGUNTEPALYA BENGALURU KARNATAKA PIN560029 INDIA,ROAD_SEGMENT,109,1.4036697247706422,1.165137614678899,44,12.930769633944955,77.60662055963303
1ST MAIN ROAD BINNY LAYOUT VIJAYA NAGAR STAGE 2 BENGALURU KARNATAKA PIN560040 INDIA,ROAD_SEGMENT,2,2.0,1.0,2,12.96672595,77.54462435
1ST MAIN ROAD BLOCK 1 KORAMANGALA BENGALURU KARNATAKA PIN560034 INDIA,ROAD_SEGMENT,8,2.0,1.25,8,12.92961935,77.6340275
1ST MAIN ROAD BLOCK 2 ARMANE NAGAR BENGALURU KARNATAKA PIN560094 INDIA,ROAD_SEGMENT,1,1.0,3.0,1,13.0285425,77.5734003
