hotspot_name,hotspot_type,violations,avg_severity,avg_vehicle_impact,recurrence_days,latitude,longitude,violations_log,violations_norm,severity_norm,vehicle_norm,recurrence_norm,risk_score,rank,priority,recommendation
BTP051 - Safina Plaza Junction,JUNCTION,12006,1.6565883724804265,1.803015159087123,151,12.98121969546266,77.60867617618138,9.393245092030718,100.0,16.41470931201066,25.507540347473327,99.33333333333336,87.88351461524141,1,CRITICAL,Immediate enforcement deployment required
BTP082 - KR Market Junction,JUNCTION,9671,1.9329955537172991,1.7556612552993485,152,12.964437860605605,77.57722211156873,9.176990392294629,96.04032062822816,23.324888842932477,24.003357521273422,100.0,85.36491326293945,2,CRITICAL,Immediate enforcement deployment required
BTP044 - Sagar Theatre Junction,JUNCTION,9056,1.589553886925795,1.977583922261484,152,12.974972496140078,77.57889505393308,9.111293218374948,94.83738841602221,14.738847173144876,31.05266576595302,100.0,83.89642873842992,3,CRITICAL,Immediate enforcement deployment required
BTP040 - Elite Junction,JUNCTION,9385,1.4800213106020246,1.6821523708044752,152,12.97661919752797,77.57660675052745,9.146974496354362,95.49072182586701,12.000532765050615,21.66836942555392,100.0,83.67604920847637,4,CRITICAL,Immediate enforcement deployment required
BTP058 - Subbanna Junction,JUNCTION,4519,1.402301394113742,2.5523345872980747,150,12.978989202705202,77.57866663408272,8.416267272826277,82.11128395311869,10.057534852843553,49.30945159652708,98.66666666666667,74.093586560939,5,CRITICAL,Immediate enforcement deployment required
BTP211 - Central Street Junction,JUNCTION,4170,1.7870503597122305,2.0083932853717026,148,12.983323471178782,77.60346360896185,8.335911094196945,80.63994158090073,19.676258992805764,32.031316123571735,97.33333333333334,72.94781163684642,6,CRITICAL,Immediate enforcement deployment required
UNNAMED ROAD BEGUR CHIKKANAHALLI BENGALURU KARNATAKA PIN562149 INDIA,ROAD_SEGMENT,3473,2.081485747192629,2.670601785200115,147,13.185738118341492,77.6800503473366,8.153061946801051,77.29192649510992,27.037143679815724,53.06617435341543,96.66666666666669,72.02389761507361,7,CRITICAL,Immediate enforcement deployment required
BTP027 - Modi Bridge Junction,JUNCTION,3790,1.7569920844327176,1.467018469656992,146,12.998890773481468,77.54941276508485,8.240385115516334,78.89083625411921,18.92480211081794,14.834704330280923,96.00000000000001,70.5468844308912,8,CRITICAL,Immediate enforcement deployment required
BTP057 - Anand Rao Junction,JUNCTION,3312,1.88737922705314,2.4145531400966185,148,12.97939246838768,77.57440532578502,8.105609402299896,76.42305815685593,22.184480676328498,44.93286445012789,97.33333333333334,70.47020448229065,9,CRITICAL,Immediate enforcement deployment required
"BTP080 - NR Road, SP Road Junction",JUNCTION,3024,1.724537037037037,1.8253968253968251,145,12.964382455569687,77.5832034382154,8.014666370464942,74.75786776976739,18.113425925925924,26.21848739495797,95.33333333333334,67.69522784482108,10,CRITICAL,Immediate enforcement deployment required
MBT ROAD DEVASANDRA JUNCTION KR PURAM BENGALURU KARNATAKA PIN560036 INDIA,ROAD_SEGMENT,2525,2.5326732673267327,2.0257425742574258,150,13.008258544659729,77.69511018769676,7.8343923029104365,71.45700306055127,38.31683168316832,32.582411182294706,98.66666666666667,67.55973950920593,11,CRITICAL,Immediate enforcement deployment required
NEW HORIZON COLLEGE ROAD NEW HORIZON COLLEGE OF ENGINEERING KADUBISANAHALLI BENGALURU KARNATAKA PIN560103 INDIA,ROAD_SEGMENT,3119,2.2504007694773964,1.1468419365181148,95,12.933799512816613,77.69090789912138,8.045588280803528,75.32405592962195,31.26001923693491,4.664390924693063,62.000000000000014,66.7184662136257,12,CRITICAL,Immediate enforcement deployment required
BTP045 - Danvanthri Road Junction,JUNCTION,2605,1.8111324376199616,2.128214971209213,149,12.977075850134357,77.57476438395393,7.8655717576847906,72.02790692550205,20.27831094049904,35.83741673252794,98.00000000000001,66.34202747107796,13,CRITICAL,Immediate enforcement deployment required
"BTP083 - AS Char Street, Mysore Road",JUNCTION,2319,2.263906856403622,2.523932729624838,140,12.966453430470342,77.57438613418712,7.749322464660356,69.89935236398885,31.597671410090555,48.407274941024276,92.0,66.09961277925136,14,CRITICAL,Immediate enforcement deployment required
BTP020 - Hosahalli Metro Station,JUNCTION,3136,1.6036352040816326,1.1253188775510203,121,12.974214090656886,77.54529837088647,8.051022208190679,75.42355254268452,15.090880102040815,3.9807172869147642,79.33333333333334,66.0136325753641,15,CRITICAL,Immediate enforcement deployment required
"BTP001 - 10th Cross, Dr. Rajkumar Road",JUNCTION,2464,1.6392045454545454,2.346590909090909,141,13.007779907408109,77.55463999297899,7.80994708647679,71.00940483785863,15.980113636363635,42.774064171123,92.66666666666667,65.17757177581275,16,CRITICAL,Immediate enforcement deployment required
BELLARY ROAD VINAYAKA NAGAR HEBBAL BENGALURU KARNATAKA PIN560024 INDIA,ROAD_SEGMENT,2405,1.2432432432432432,1.5363825363825363,141,13.035339403259773,77.58902624387916,7.785720896534624,70.56581704676002,6.08108108108108,17.03803350862174,92.66666666666667,62.545996754280544,17,CRITICAL,Immediate enforcement deployment required
BTP032 - Windsor Circle,JUNCTION,2271,1.750330250990753,1.3619550858652576,106,12.993098903718918,77.58823304418353,7.7284157798410416,69.51654556851945,18.758256274768826,11.497396845131714,69.33333333333334,61.5305985912157,18,CRITICAL,Immediate enforcement deployment required
"BTP016 - 5th Main Road, RPC Layout",JUNCTION,1862,1.911385606874329,1.7040816326530612,104,12.965271313031003,77.53778991937591,7.529943370601589,65.88246452570097,22.78464017185822,22.364945978391354,68.0,59.50268293666617,19,CRITICAL,Immediate enforcement deployment required
NEW HORIZON COLLEGE ROAD EMBASSY TECH VILLAGE DEVARA BEESANA HALLI BENGALURU KARNATAKA PIN560103 INDIA,ROAD_SEGMENT,2076,1.9865125240847783,1.2336223506743738,70,12.932974482660663,77.69130301582004,7.638679823876112,67.87345705218112,24.662813102119458,7.4209452567154,45.333333333333336,59.40276088145929,20,CRITICAL,Immediate enforcement deployment required
BTP038 - Mysore Bank Junction,JUNCTION,1659,1.7136829415310428,2.1392405063291138,138,12.9734831854129,77.58128349849306,7.414572881350589,63.77000108811597,17.842073538276072,36.187639612807146,90.66666666666667,59.14292353829407,21,CRITICAL,Immediate enforcement deployment required
80 FEET RING ROAD ORION BRIGADE GATEWAY MALLESHWARAM WEST BENGALURU KARNATAKA PIN560055 INDIA,ROAD_SEGMENT,1773,1.617033276931754,1.7834179357021998,133,13.011473322391428,77.55447886373379,7.480992162869525,64.98615527685449,15.425831923293847,24.885040310540468,87.33333333333334,59.142426096006666,22,CRITICAL,Immediate enforcement deployment required
BTP023 - Mahalaxmi Layout Entrance,JUNCTION,1569,1.808795411089866,1.9891650732950923,135,13.008970865555847,77.54919375712251,7.358830898342354,62.749350991129745,20.219885277246654,31.420537622314697,88.66666666666667,58.22582953507753,23,CRITICAL,Immediate enforcement deployment required
BTP042 - Minsk Square Junction (CTO),JUNCTION,1814,1.6477398015435505,1.1278941565600882,111,12.981155121389197,77.59844629520397,7.503840746698951,65.4045187444415,16.19349503858876,4.062520267202801,72.66666666666669,57.77942384610556,24,CRITICAL,Immediate enforcement deployment required
BTP108 - Tagore Park Junction,JUNCTION,1532,1.7715404699738904,1.6031331592689295,139,12.943920381829178,77.57145562370971,7.334981878871814,62.312669288721764,19.288511749347258,19.15834741207188,91.33333333333334,57.30357064318241,25,CRITICAL,Immediate enforcement deployment required
BTP043 - Upparpet Junction,JUNCTION,1437,1.7508698677800971,1.998608211551844,144,12.97113811954109,77.57557553212548,7.271008538280992,61.14130090972261,18.77174669450243,31.720496131646808,94.66666666666667,57.109573537144,26,CRITICAL,Immediate enforcement deployment required
BTP104 - Medical College Circle,JUNCTION,1195,2.0518828451882847,2.784937238493724,119,12.959587133640168,77.57661472635984,7.086737934510577,57.76725859080835,26.297071129707117,56.69800639921241,78.0,55.57841430557802,27,CRITICAL,Immediate enforcement deployment required
"BTP070 - Cholurpalya Junction, Magadi Road",JUNCTION,1638,1.2106227106227103,1.1428571428571428,111,12.97348332026816,77.55079849400427,7.40184157874383,63.53688765118586,5.2655677655677575,4.537815126050421,72.66666666666669,55.21629098714132,28,CRITICAL,Immediate enforcement deployment required
BTP048 - Shanthala Junction,JUNCTION,1260,2.042063492063492,2.0396825396825395,118,12.976918728095235,77.57074818349206,7.13966033596492,58.7362814217532,26.051587301587297,33.02521008403361,77.33333333333334,55.11211103842964,29,CRITICAL,Immediate enforcement deployment required
SAHAKAR NAGAR ROAD FORTUNA ACACIA BYATARAYANAPURA BENGALURU KARNATAKA PIN560092 INDIA,ROAD_SEGMENT,1655,1.7540785498489426,1.1323262839879151,57,13.071060451416146,77.58788854367975,7.412160334945205,63.72582674070757,18.851963746223564,4.203305491380832,36.66666666666667,54.90935637509079,30,CRITICAL,Immediate enforcement deployment required
"BTP182 - 19th Main Junction, Rajajinagar",JUNCTION,1168,1.8065068493150684,2.1241438356164384,119,12.998961811914375,77.55086787097474,7.063903961472068,57.34916265057437,20.16267123287671,35.70809830781628,78.0,53.58100215913798,31,CRITICAL,Immediate enforcement deployment required
KADUBEESANAHALLI UNDERPASS KADUBISANAHALLI JUNCTION KADUBISANAHALLI BENGALURU KARNATAKA PIN560103 INDIA,ROAD_SEGMENT,770,4.841558441558441,2.7324675324675325,45,12.939734008431495,77.69553968486396,6.647688373563329,49.728147802511444,96.03896103896103,55.03132161955693,28.666666666666675,53.57131376021645,32,CRITICAL,Immediate enforcement deployment required
"BTP011 - RR Kalyana Mantapa, Dr. Rajkumar Road",JUNCTION,978,1.9611451942740288,2.6666666666666665,110,12.993703469187109,77.553774789129,6.88653164253051,54.1014297074599,24.02862985685072,52.941176470588246,72.00000000000001,51.931065575182416,33,CRITICAL,Immediate enforcement deployment required
SRI VENKATARANGA AYANGAR ROAD RANGANATHAPURA MALLESHWARAM BENGALURU KARNATAKA PIN560003 INDIA,ROAD_SEGMENT,1075,1.603720930232558,2.390697674418605,105,13.00660599144186,77.57118733962791,6.98100574072173,55.83127483096957,15.093023255813948,44.17510259917922,68.66666666666667,51.81641065364934,34,CRITICAL,Immediate enforcement deployment required
OUTER RING ROAD VENKATAPPA COLONY MAHADEVAPURA BENGALURU KARNATAKA PIN560016 INDIA,ROAD_SEGMENT,812,2.924876847290641,2.476600985221675,93,13.000408345541205,77.67747068506173,6.70073110954781,50.69937398976381,48.12192118226603,46.90379600115909,60.66666666666667,50.75021444342894,35,CRITICAL,Immediate enforcement deployment required
"BTP026 - 1st Block Junction, Rajajinagar",JUNCTION,977,1.7574206755373594,2.4534288638689867,98,13.002447570419651,77.55009498464688,6.885509670034818,54.08271712727253,18.935516888433984,46.16774038172076,64.0,50.668112409747465,36,CRITICAL,Immediate enforcement deployment required
BTP008 - Navarang Theatre,JUNCTION,1013,1.9338598223099703,1.437314906219151,108,12.998479756367226,77.55309288953602,6.921658184151129,54.74460575138678,23.346495557749257,13.89117937402009,70.66666666666667,50.358226458918686,37,CRITICAL,Immediate enforcement deployment required
SAHAKAR NAGAR ROAD FORTUNE ACACIA BYATARAYANAPURA BENGALURU KARNATAKA PIN560092 INDIA,ROAD_SEGMENT,1118,1.7164579606440071,1.242397137745975,81,13.071101166905189,77.58791470035779,7.020190708311925,56.548761701959194,17.91144901610018,7.699673787225092,52.66666666666667,50.04847128587196,38,CRITICAL,Immediate enforcement deployment required
BTP063 - Siddalingaiah Circle,JUNCTION,930,1.2838709677419355,2.2548387096774194,121,12.971520372580644,77.59672561989248,6.836259277277067,53.180929723380174,7.096774193548389,39.8595825426945,79.33333333333334,49.21406699186038,39,CRITICAL,Immediate enforcement deployment required
BTP135 - UCO Bank Junction,JUNCTION,990,1.4696969696969695,1.694949494949495,106,12.935614563434344,77.6149854229293,6.898714534329988,54.324501600953056,11.742424242424237,22.07486631016043,69.33333333333334,49.20425368717956,40,CRITICAL,Immediate enforcement deployment required
BTP205 - Modi Hospital Junction,JUNCTION,863,1.9524913093858636,1.9976825028968717,112,12.99749270104206,77.54689772769359,6.761572768804055,51.81340047517815,23.81228273464659,31.691091268488865,73.33333333333334,49.08316988369828,41,CRITICAL,Immediate enforcement deployment required
"BTP022 - Marenahalli Junction, Vijayanagar",JUNCTION,936,1.6463675213675213,1.4647435897435896,121,12.96876287099882,77.53671935501633,6.842683282238422,53.29855491238498,16.159188034188034,14.762443438914024,79.33333333333334,48.95955157193916,42,CRITICAL,Immediate enforcement deployment required
BTP074 - Leprosy Hospital Junction,JUNCTION,838,1.9988066825775657,1.600238663484487,119,12.97574204139842,77.56168322993689,6.732210706467206,51.27577353486292,24.970167064439142,19.066404604801352,78.0,48.37095576457432,43,CRITICAL,Immediate enforcement deployment required
BTP096 - Gali Anjaneya Temple,JUNCTION,767,2.215123859191656,2.0378096479791394,104,12.9525929314987,77.54122184349845,6.643789733147672,49.65676269018475,30.378096479791406,32.965718229925606,68.0,47.81150571162322,44,CRITICAL,Immediate enforcement deployment required
BTP061 - Bhashyam Circle,JUNCTION,848,1.5011792452830188,1.830188679245283,119,12.985179307748298,77.55395829537082,6.744059186311348,51.49272225913555,12.529481132075471,26.370699223085463,78.0,47.665660881670256,45,CRITICAL,Immediate enforcement deployment required
BTP010 - Rajajinagar Entrance,JUNCTION,811,1.5684340320591863,1.8939580764488289,124,12.982258627150356,77.56000777722677,6.699500340161678,50.67683828461789,14.210850801479658,28.396315369551033,81.33333333333334,47.449038142986495,46,CRITICAL,Immediate enforcement deployment required
MBT ROAD ROYAL HERITAGE PAI LAYOUT MAHADEVAPURA BENGALURU KARNATAKA PIN560016 INDIA,ROAD_SEGMENT,526,3.96958174904943,2.401140684410646,101,12.99624768818234,77.66863365802398,6.267200548541362,42.761317514945695,74.23954372623575,44.50682174010288,66.0,47.158349471585275,47,CRITICAL,Immediate enforcement deployment required
SRI VENKATARANGA AYANGAR ROAD RR PALACE MALLESHWARAM BENGALURU KARNATAKA PIN560003 INDIA,ROAD_SEGMENT,729,1.5994513031550068,2.2373113854595337,124,12.999347908255102,77.571347886699,6.593044534142437,48.72760499806199,14.986282578875171,39.30283224400872,81.33333333333334,46.51252053520422,48,CRITICAL,Immediate enforcement deployment required
BTP069 - MC Circle,JUNCTION,766,1.922976501305483,1.608355091383812,94,12.974678610848434,77.54747380990291,6.642486801367256,49.63290567297294,23.074412532637073,19.32422054983874,61.33333333333334,46.046643485800665,49,CRITICAL,Immediate enforcement deployment required
BTP208 - Havanur Circle,JUNCTION,704,2.153409090909091,2.0298295454545454,87,12.987950006827834,77.53755365175766,6.558197802812269,48.08955235277783,28.83522727272727,32.71223262032086,56.66666666666668,45.82410957384437,50,CRITICAL,Immediate enforcement deployment required
"BTP148 - 17th Main, Doopanahalli Bus Stop",JUNCTION,637,2.2574568288854,2.2150706436420724,101,12.963617460901665,77.6422329805704,6.45833828334479,46.2610987756164,31.436420722134994,38.59636162157171,66.0,45.382339173785205,51,CRITICAL,Immediate enforcement deployment required
BTP054 - Shivananda Circle,JUNCTION,662,1.418429003021148,2.5725075528700905,127,12.986320464460649,77.57889089294382,6.4967749901858625,46.964884799148706,10.460725075528698,49.950239914697,83.33333333333334,45.28215900927336,52,CRITICAL,Immediate enforcement deployment required
KAMARAJ ROAD SRI NAGAMMA DEVI CIRCLE SIVANCHETTI GARDENS BENGALURU KARNATAKA PIN560042 INDIA,ROAD_SEGMENT,741,1.5452091767881242,1.8461538461538465,102,12.982573873954117,77.61065145155196,6.60934924316738,49.026148428875736,13.630229419703104,26.877828054298654,66.66666666666667,45.261166421119164,53,CRITICAL,Immediate enforcement deployment required
PUSA THIPPASANDRA MAIN ROAD NADA PRABHU KEMPEGOWDA CIRCLE NEW THIPPASANDRA BENGALURU KARNATAKA PIN560075 INDIA,ROAD_SEGMENT,798,1.3270676691729324,1.3959899749373434,88,12.97167096528822,77.6580979914787,6.683360945766275,50.38132180734196,8.17669172932331,12.578505086245029,57.333333333333336,44.61831853978482,54,CRITICAL,Immediate enforcement deployment required
OLD MADRAS ROAD ROYAL HERITAGE PAI LAYOUT MAHADEVAPURA BENGALURU KARNATAKA PIN560016 INDIA,ROAD_SEGMENT,491,3.556008146639511,1.9755600814663952,93,12.99593755120293,77.66802199889858,6.198478716492308,41.503003031666985,63.900203665987775,30.98837905834432,60.66666666666667,44.17517507818291,55,CRITICAL,Immediate enforcement deployment required
VEERA PILLAI ROAD SRI NAGAMMA DEVI CIRCLE SIVANCHETTI GARDENS BENGALURU KARNATAKA PIN560042 INDIA,ROAD_SEGMENT,660,1.7454545454545454,1.8575757575757577,102,12.982824094090908,77.61129954136364,6.493753839851686,46.90956675671143,18.636363636363633,27.24064171122996,66.66666666666667,44.08665518790034,56,CRITICAL,Immediate enforcement deployment required
SAHAKAR NAGAR ROAD OLIVIA RAINTREE BOULEVARD BYATARAYANAPURA BENGALURU KARNATAKA PIN560092 INDIA,ROAD_SEGMENT,755,1.7152317880794703,1.0768211920529802,82,13.071408099964646,77.58827860607293,6.628041376179533,49.36840620913654,17.88079470198676,2.4402025710946686,53.33333333333334,44.071481232729305,57,CRITICAL,Immediate enforcement deployment required
15TH CROSS ROAD MALLESHWARA EXTENSION MALLESHWARAM WEST BENGALURU KARNATAKA PIN560055 INDIA,ROAD_SEGMENT,774,1.2855297157622738,1.8695090439276485,58,13.005500284754524,77.56918788901808,6.652863029353347,49.82289708570742,7.138242894056845,27.619699042407657,37.33333333333334,43.81979357675868,58,CRITICAL,Immediate enforcement deployment required
SRI VENKATARANGA AYANGAR ROAD MALLESHWARAM 18TH CROSS JUNCTION MALLESHWARAM WEST BENGALURU KARNATAKA PIN560055 INDIA,ROAD_SEGMENT,611,1.7217675941080195,2.220949263502455,108,13.007894987561375,77.57113976824877,6.416732282512326,45.4992821610444,18.044189852700487,38.783094252430935,70.66666666666667,43.67633276006044,59,HIGH,High priority enforcement zone
MBT ROAD SM LAYOUT DOORAVANI NAGAR BENGALURU KARNATAKA PIN560016 INDIA,ROAD_SEGMENT,624,2.1041666666666665,2.1698717948717947,65,13.00564657790064,77.68591199820118,6.437751649736401,45.88415220043054,27.604166666666664,37.160633484162894,42.00000000000001,43.42577010121924,60,HIGH,High priority enforcement zone
"BTP206 - Shankara Mutt Circle, Vijayanagar",JUNCTION,612,1.959150326797385,1.9918300653594767,83,12.99863382254902,77.54146874738562,6.418364935936212,45.5291764666558,23.97875816993463,31.50519031141868,54.0,43.096476505889036,61,HIGH,High priority enforcement zone
BTP028 - Vijayanagar Bus Stand Junction,JUNCTION,601,1.735440931780366,2.091514143094842,94,12.972557481866048,77.53810466215123,6.400257445308821,45.19762363936772,18.38602329450915,34.67162572183616,61.33333333333334,42.79694919370357,62,HIGH,High priority enforcement zone
NEELADRI ROAD AJMERA ANNEX KARUNA NAGAR DODDATHOGUR BENGALURU KARNATAKA PIN560100 INDIA,ROAD_SEGMENT,669,1.7548579970104634,1.3348281016442451,79,12.841882560687592,77.64579355784754,6.507277712385012,47.157192353574914,18.871449925261587,10.635716169876025,51.33333333333334,42.711351350546565,63,HIGH,High priority enforcement zone
OUTER RING ROAD VAJRAM ONYX DEVARA BEESANA HALLI BENGALURU KARNATAKA PIN560103 INDIA,ROAD_SEGMENT,503,2.89662027833002,2.3956262425447314,61,12.932260731484105,77.68814488476005,6.222576268071369,41.944235421133016,47.415506958250496,44.33165711612677,39.333333333333336,42.480188555204464,64,HIGH,High priority enforcement zone
BTP192 - Urvashi Theater,JUNCTION,583,1.097770154373928,2.262435677530017,130,12.956458222813035,77.58602209005146,6.369900982828227,44.641788975746245,2.4442538593482,40.10089799212995,85.33333333333334,42.22956813280498,65,HIGH,High priority enforcement zone
"BTP170 - Dr. Bheem Rao Palace, Chord Road",JUNCTION,488,2.432377049180328,2.762295081967213,82,12.990418405588011,77.55129666860628,6.192362489474872,41.391013336258894,35.809426229508205,55.9787849566056,53.33333333333334,42.15935920645489,66,HIGH,High priority enforcement zone
"BTP024 - NPS, Vijayanagar",JUNCTION,565,1.791150442477876,2.392920353982301,83,12.98285641751018,77.54881741390679,6.338594078203183,44.068551471132025,19.7787610619469,44.24570536179074,54.0,42.145002551189855,67,HIGH,High priority enforcement zone
BTP118 - Basappa Circle,JUNCTION,543,1.87292817679558,2.136279926335175,102,12.95812127771639,77.57755133996316,6.298949246855942,43.342644376051,21.823204419889503,36.0935976600585,66.66666666666667,41.99444915916601,68,HIGH,High priority enforcement zone
DA RA BENDRE ROAD KIRLOSKAR FOUNDRY YESHWANTHPUR SUBURB STAGE 2 YESHWANTHPUR BENGALURU KARNATAKA PIN560022 INDIA,ROAD_SEGMENT,530,1.6660377358490566,2.4716981132075477,109,13.011738411698111,77.55186309943397,6.274762021241939,42.89977003185852,16.650943396226413,46.74805771365152,71.33333333333334,41.88897991745871,69,HIGH,High priority enforcement zone
BENGALURU BELLARY ROAD SADAHALLI GATE JUNCTION NAVARATHNA AGRAHARA BENGALURU KARNATAKA PIN562157 INDIA,ROAD_SEGMENT,477,2.561844863731656,2.708595387840671,74,13.191241025031449,77.64627131415095,6.169610732491456,40.97442279321524,39.0461215932914,54.27302996670367,48.00000000000001,41.797801892236514,70,HIGH,High priority enforcement zone
OUTER RING ROAD SOULSPACE PARADIGM MARATHAHALLI VILLAGE MARATHAHALLI BENGALURU KARNATAKA PIN560037 INDIA,ROAD_SEGMENT,376,3.8138297872340425,3.220744680851064,49,12.949900217461636,77.69962447012223,5.932245187448011,36.62819839474005,70.34574468085107,70.5413016270338,31.333333333333336,41.43086493189551,71,HIGH,High priority enforcement zone
BTP172 - Nanjappa Circle,JUNCTION,711,1.0407876230661042,1.220815752461322,64,12.961708158087202,77.59946824177216,6.568077911411976,48.2704596914894,1.0196905766526043,7.0141474311243455,41.333333333333336,41.13571084907967,72,HIGH,High priority enforcement zone
BTP071 - Prasanna Junction,JUNCTION,584,1.3441780821917808,1.3869863013698631,112,12.974426295122491,77.55209196904336,6.371611847231857,44.67311534458456,8.604452054794521,12.292506043513301,73.33333333333334,40.88022944998943,73,HIGH,High priority enforcement zone
"BTP204 - ESI Hospital, Rajajinagar",JUNCTION,512,1.921875,2.20703125,81,12.990390761914062,77.55373549921875,6.240275845170769,42.26831924643306,23.046875,38.34099264705883,52.66666666666667,40.66972586283272,74,HIGH,High priority enforcement zone
ITPL MAIN ROAD BRIGADE TECH GARDENS BROOKEFIELD BENGALURU KARNATAKA PIN560037 INDIA,ROAD_SEGMENT,546,1.9468864468864469,2.005494505494505,57,12.964698323809523,77.71821133168498,6.304448802421981,43.44334265800895,23.67216117216117,31.939237233354874,36.66666666666667,40.552185438624356,75,HIGH,High priority enforcement zone
"BTP095 - Satellite Bus Stand, Mysore Road",JUNCTION,502,2.137450199203187,1.735059760956175,86,12.953803271653324,77.54335001074278,6.220590170099739,41.90786945462142,28.436254980079678,23.34895711272556,56.00000000000001,40.33736891734139,76,HIGH,High priority enforcement zone
BTP137 - Madiwala Traffic PS Junction,JUNCTION,475,1.4210526315789471,2.52,104,12.923019400893445,77.62004467537922,6.16541785423142,40.89765011000939,10.526315789473678,48.282352941176484,68.0,39.5848693140137,77,HIGH,High priority enforcement zone
AS CHAR MAIN ROAD CHICKPET CIRCLE CHICKPETE BENGALURU KARNATAKA PIN560053 INDIA,ROAD_SEGMENT,514,1.4863813229571985,1.632295719844358,105,12.969664420518011,77.57560233872437,6.244166900663736,42.339565476867456,12.159533073929962,20.084687571526665,68.66666666666667,39.525173400796625,78,HIGH,High priority enforcement zone
DA RA BENDRE ROAD ORION BRIGADE GATEWAY MALLESHWARAM WEST BENGALURU KARNATAKA PIN560055 INDIA,ROAD_SEGMENT,452,1.4601769911504423,2.3783185840707963,123,13.012449790929203,77.55358556438053,6.115892125483034,39.99082123305886,11.504424778761058,43.78188443519001,80.66666666666667,39.36552701941602,79,HIGH,High priority enforcement zone
"BTP123 - 10th Cross, Wilson Garden",JUNCTION,499,1.3507014028056112,1.845691382765531,107,12.94602542140089,77.59606288539078,6.214608098422191,41.798336178114816,8.767535070140282,26.863138040787454,70.0,39.15857935154526,80,HIGH,High priority enforcement zone
MBT ROAD TIN FACTORY JUNCTION DOORAVANI NAGAR BENGALURU KARNATAKA PIN560016 INDIA,ROAD_SEGMENT,279,4.200716845878136,3.082437275985663,79,12.99652908108746,77.6691031214065,5.634789603169249,31.181709867441732,80.01792114695341,66.14800759013282,51.33333333333334,38.82122705482204,81,HIGH,High priority enforcement zone
UNNAMED ROAD JAGAJOTHI NAGAR MUTHUGADA HALLI BENGALURU KARNATAKA PIN562157 INDIA,ROAD_SEGMENT,380,2.3421052631578947,2.6052631578947367,101,13.183549658947369,77.67963625236841,5.942799375126701,36.82144829538092,33.55263157894737,50.99071207430341,66.0,38.66195739791464,82,HIGH,High priority enforcement zone
G NARAYANA KUMAR ROAD BLOCK C KP AGRAHARA BENGALURU KARNATAKA PIN560023 INDIA,ROAD_SEGMENT,534,1.344569288389513,1.147940074906367,87,12.975738660384376,77.55881836038829,6.282266746896006,43.03718349570222,8.614232209737827,4.699272967614015,56.66666666666668,38.3594669992496,83,HIGH,High priority enforcement zone
"BTP186 - 9th Cross, 4th Main, Jayanagar",JUNCTION,533,1.6060037523452158,1.4559099437148215,47,12.939347337107495,77.58306416674564,6.280395838960195,43.00292668847929,15.150093808630395,14.48184527094139,30.000000000000004,38.14144299519355,84,HIGH,High priority enforcement zone
BTP130 - GD Mara Junction,JUNCTION,573,1.1832460732984291,1.212914485165794,56,12.908068221291447,77.6008194026178,6.352629396319567,44.32554176863548,4.581151832460728,6.7631659993840465,36.00000000000001,38.05670689812366,85,HIGH,High priority enforcement zone
"BTP189 - New Diagonal Road, Jayanagar",JUNCTION,526,1.0893536121673004,1.7243346007604563,75,12.928088826806084,77.58068386501901,6.267200548541362,42.761317514945695,2.2338403041825106,23.008275553567444,48.66666666666667,38.01618515338652,86,HIGH,High priority enforcement zone
"BTP226 - 33rd Cross, 11th Main, Jayanagar",JUNCTION,392,2.1020408163265305,2.4081632653061225,86,12.92589586147959,77.58556115841837,5.973809611869261,37.38925373449105,27.55102040816326,44.729891956782716,56.00000000000001,37.70299962624831,87,HIGH,High priority enforcement zone
WHITEFIELD ROAD PHOENIX MARKETCITY DYAVASANDRA INDUSTRIAL ESTATE PHASE 2 MAHADEVAPURA BENGALURU KARNATAKA PIN560048 INDIA,ROAD_SEGMENT,383,2.8798955613577024,2.3342036553524803,38,12.995319403347136,77.69644940235271,5.950642552587727,36.96505889917112,46.99738903394256,42.380586699431724,24.000000000000004,37.590815357702745,88,HIGH,High priority enforcement zone
VIBGYOR HIGH SCHOOL ROAD SAMHITA RAINBOW MTB APARTMENT GREEN GARDEN LAYOUT MUNNEKOLALA BENGALURU KARNATAKA PIN560037 INDIA,ROAD_SEGMENT,284,4.369718309859155,2.285211267605634,40,12.95154142288456,77.71745337550233,5.652489180268651,31.50579369274178,84.24295774647888,40.82435791217897,25.333333333333336,36.93681529111693,89,HIGH,High priority enforcement zone
18TH CROSS ROAD MALLESHWARAM 18TH CROSS JUNCTION MALLESHWARAM WEST BENGALURU KARNATAKA PIN560055 INDIA,ROAD_SEGMENT,383,1.5953002610966058,2.506527415143603,97,13.008491136031331,77.57069275013055,5.950642552587727,36.96505889917112,14.882506527415146,47.854400245737985,63.33333333333334,36.61968445103198,90,HIGH,High priority enforcement zone
"BTP210 - 50th cross, 12th Main , Rajajinagar",JUNCTION,389,1.557840616966581,2.336760925449872,97,12.986993655784064,77.5551775596401,5.966146739123692,37.24894455658105,13.946015424164527,42.46181763193711,63.33333333333334,36.48351473594482,91,HIGH,High priority enforcement zone
CHORD ROAD WORLD TRADE CENTRE BRIGADE GATEWAY MALLESHWARAM WEST BENGALURU KARNATAKA PIN560055 INDIA,ROAD_SEGMENT,404,1.4727722772277227,1.9851485148514847,101,13.012836303465344,77.55452560470297,6.003887067106539,37.93997970347014,11.819306930693068,31.292952824694225,66.0,36.39856209708013,92,HIGH,High priority enforcement zone
"BTP062 - Basava Mantapa, Dr. Rajkumar Road",JUNCTION,378,1.6825396825396826,2.113756613756614,107,12.979945215841298,77.55467786687831,5.937536205082426,36.725078293342236,17.063492063492063,35.37815126050422,70.0,36.3553194040482,93,HIGH,High priority enforcement zone
OUTER RING ROAD RAJIV NAGAR KADUBISANAHALLI BENGALURU KARNATAKA PIN560103 INDIA,ROAD_SEGMENT,355,2.8422535211267608,1.6985915492957746,63,12.936002882370026,77.69200935183241,5.87493073085203,35.57875590047577,46.05633802816902,22.19055509527755,40.66666666666667,36.21149961129473,94,HIGH,High priority enforcement zone
DA RA BENDRE ROAD RENAISSANCE TEMPLE APARTMENT YESHWANTHPUR SUBURB STAGE 2 YESHWANTHPUR BENGALURU KARNATAKA PIN560022 INDIA,ROAD_SEGMENT,374,1.4839572192513368,2.5427807486631018,97,13.012131085828877,77.55253901684492,5.926926025970411,36.53080317510469,12.098930481283421,49.005976722239716,63.33333333333334,36.05150109099074,95,HIGH,High priority enforcement zone
BTP068 - Veeresh Theatre Junction,JUNCTION,452,1.3163716814159292,1.511061946902655,74,12.977203603539824,77.54560192323008,6.115892125483034,39.99082123305886,7.90929203539823,16.233732431025512,48.00000000000001,35.995272811538186,96,HIGH,High priority enforcement zone
SAHAKAR NAGAR ROAD LT REALTY ELARA CELESTIA BYATARAYANAPURA BENGALURU KARNATAKA PIN560092 INDIA,ROAD_SEGMENT,388,2.1597938144329896,1.8170103092783505,63,13.07201317113402,77.58946834304123,5.963579343618446,37.201934882184574,28.99484536082474,25.95209217707702,40.66666666666667,35.99197038401732,97,HIGH,High priority enforcement zone
COLES ROAD SILVER ENCLAVE FRAZER TOWN BENGALURU KARNATAKA PIN560005 INDIA,ROAD_SEGMENT,477,1.060796645702306,1.2914046121593292,78,12.99561939895178,77.6138059624738,6.169610732491456,40.97442279321524,1.519916142557648,9.256381798002222,50.66666666666667,35.927682272061396,98,HIGH,High priority enforcement zone
BTP136 - Hosur-Tavarkere Road Junction,JUNCTION,321,2.685358255451713,2.1246105919003115,87,12.93427818317757,77.60855998068536,5.7745515455444085,33.740787107645296,42.13395638629282,35.72292468389225,56.66666666666668,35.825504892273464,99,HIGH,High priority enforcement zone
DA RA BENDRE ROAD PHOENIX KESSAKU RAJAJI NAGAR BENGALURU KARNATAKA PIN560010 INDIA,ROAD_SEGMENT,357,1.4789915966386555,2.711484593837535,94,13.012054458543416,77.55272241288515,5.8805329864007,35.681334645624595,11.974789915966388,54.3648047454276,61.33333333333334,35.527453612034364,100,HIGH,High priority enforcement zone
MBT ROAD KOTTURU DOORAVANI NAGAR BENGALURU KARNATAKA PIN560016 INDIA,ROAD_SEGMENT,311,3.0064308681672025,2.42443729903537,48,13.000614863938075,77.67689036462596,5.7430031878094825,33.163128534265326,50.160771704180064,45.24683185171176,30.66666666666667,35.34225492374919,101,HIGH,High priority enforcement zone
BTP215 - Vanivillas Junction,JUNCTION,365,1.4465753424657537,2.084931506849315,102,12.946162915649133,77.5702324075469,5.902633333401366,36.0859977037423,11.164383561643842,34.46253021756648,66.66666666666667,35.04169636336988,102,HIGH,High priority enforcement zone
UNNAMED ROAD CHIKKANAHALLI NORTH TALUKA BENGALURU KARNATAKA PIN562149 INDIA,ROAD_SEGMENT,346,1.907514450867052,2.921965317919075,48,13.183902827456649,77.68587013554914,5.849324779946859,35.10990433000103,22.6878612716763,61.05066303978239,30.66666666666667,34.94257607649091,103,HIGH,High priority enforcement zone
NEELADRI ROAD NEELADRI NAGAR ELECTRONIC CITY BENGALURU KARNATAKA PIN560100 INDIA,ROAD_SEGMENT,397,1.778337531486146,1.473551637279597,56,12.841636478085643,77.647414904534,5.986452005284438,37.62073922117406,19.45843828715365,15.04222847829308,36.00000000000001,34.59454662956927,104,HIGH,High priority enforcement zone
JAKKUR MAIN ROAD RAITARASANTHE NEHRU NAGAR BENGALURU KARNATAKA PIN560064 INDIA,ROAD_SEGMENT,397,1.5692695214105794,1.6876574307304786,58,13.09718735768262,77.59952791083123,5.986452005284438,37.62073922117406,14.231738035264485,21.843236034968143,37.33333333333334,34.478593648880775,105,HIGH,High priority enforcement zone
BTP140 - Madiwala Check Post,JUNCTION,318,2.279874213836478,1.971698113207547,86,12.932477546540882,77.61356276006289,5.765191102784844,33.569394984602766,31.996855345911946,30.865704772475027,56.00000000000001,34.39848676089716,106,HIGH,High priority enforcement zone
BTP018 - Dhobi Ghat Junction,JUNCTION,313,2.2555910543130997,2.405750798722045,74,12.987582663258786,77.5498591942492,5.749392985908253,33.28012738678676,31.389776357827493,44.65326066528849,48.00000000000001,34.39574257847658,107,HIGH,High priority enforcement zone
MAHATMA GANDHI ROAD MITTAL TOWERS YELLAPPA CHETTY LAYOUT SIVANCHETTI GARDENS BENGALURU KARNATAKA PIN560042 INDIA,ROAD_SEGMENT,364,1.1016483516483515,2.412087912087912,94,12.97344782664835,77.61551679835165,5.8998973535824915,36.03590120704836,2.5412087912087875,44.85455720749839,61.33333333333334,34.39223637180116,108,HIGH,High priority enforcement zone
BTP076 - Hudson Circle,JUNCTION,390,1.3948717948717948,1.6923076923076923,73,12.96801804025641,77.58879632538462,5.968707559985366,37.29583384755668,9.87179487179487,21.990950226244347,47.333333333333336,34.29006074320371,109,HIGH,High priority enforcement zone
VEERA PILLAI STREET NETHAJI SUBHAS CHADRA BOSE CIRCLE SHIVAJI NAGAR BENGALURU KARNATAKA PIN560051 INDIA,ROAD_SEGMENT,410,1.9804878048780488,1.0731707317073171,35,12.983314833414632,77.60970755756098,6.018593214496234,38.209253058122194,24.51219512195122,2.3242467718794844,22.0,34.23483429728685,110,HIGH,High priority enforcement zone
BTP167 - JC Road Junction,JUNCTION,321,2.121495327102804,2.233644859813084,68,12.958270949400603,77.5812765294281,5.7745515455444085,33.740787107645296,28.037383177570096,39.18636613523914,44.00000000000001,33.9556863106352,111,HIGH,High priority enforcement zone
BTP067 - Jai Muni Rao Circle,JUNCTION,340,1.6941176470588235,1.9441176470588235,82,12.978510234647237,77.5427420405344,5.831882477283517,34.79053126603282,17.352941176470587,29.98961937716263,53.33333333333334,33.733866765998116,112,HIGH,High priority enforcement zone
OUTER RING ROAD KADUBISANAHALLI JUNCTION KADUBISANAHALLI BENGALURU KARNATAKA PIN560103 INDIA,ROAD_SEGMENT,208,4.793269230769231,2.7740384615384617,25,12.939752500492183,77.69545717584501,5.342334251964811,25.826776898393046,94.83173076923077,56.351809954751154,15.333333333333336,33.728851760041735,113,HIGH,High priority enforcement zone
BTP126 - Dairy Circle,JUNCTION,263,2.923954372623574,2.0608365019011408,96,12.93676480418251,77.60206114106464,5.575949103146316,30.104325124128017,48.09885931558935,33.697159472153885,62.66666666666667,33.711537337802376,114,HIGH,High priority enforcement zone
SRI VENKATARANGA AYANGAR ROAD MILL CORNER JUNCTION SESHADRIPURAM BENGALURU KARNATAKA PIN560020 INDIA,ROAD_SEGMENT,359,1.3899721448467968,2.1949860724233985,65,12.99431393955432,77.57145784206128,5.886104031450156,35.783341918476744,9.749303621169918,37.95838112403737,42.00000000000001,33.59952295310026,115,HIGH,High priority enforcement zone
"BTP099 - Cash Pharmacy, Residency Road",JUNCTION,312,1.6826923076923077,2.8814102564102564,69,12.96925714423077,77.6002740650641,5.746203190540153,33.22172141024773,17.067307692307693,59.76244343891403,44.66666666666667,33.50556340270799,116,HIGH,High priority enforcement zone
SRINIVAGILU MAIN ROAD ST BED LAYOUT EXTENSION BLOCK 4 KORAMANGALA BENGALURU KARNATAKA PIN560034 INDIA,ROAD_SEGMENT,406,1.179802955665025,1.977832512315271,27,12.932386412068965,77.63173701970445,6.008813185442595,38.03017820173162,4.495073891625623,31.060562155896847,16.666666666666668,33.26001139167604,117,HIGH,High priority enforcement zone
SRI VENKATARANGA AYANGAR ROAD SHIVANANDAPPA LAYOUT MALLESHWARAM BENGALURU KARNATAKA PIN560003 INDIA,ROAD_SEGMENT,351,1.50997150997151,2.11965811965812,57,12.995607768376068,77.57144096210826,5.863631175598097,35.371858127138125,12.749287749287753,35.56561085972853,36.66666666666667,33.184029152959035,118,HIGH,High priority enforcement zone
17TH CROSS ROAD SECTOR 7 HSR LAYOUT BENGALURU KARNATAKA PIN560102 INDIA,ROAD_SEGMENT,353,1.9376770538243624,1.2039660056657224,59,12.912419509408274,77.6337279830333,5.869296913133774,35.475599243855015,23.44192634560906,6.478920179970005,38.00000000000001,32.94861803864342,119,HIGH,High priority enforcement zone
OUTER RING ROAD SAFFRON SQUARE KARIYAMMANA AGRAHARA BENGALURU KARNATAKA PIN560103 INDIA,ROAD_SEGMENT,301,2.255813953488372,2.338870431893688,47,12.93007053170932,77.68511009870066,5.71042701737487,32.56665044505533,31.3953488372093,42.52882548368186,30.000000000000004,32.81929651394929,120,HIGH,High priority enforcement zone
MAHATMA GANDHI ROAD WEBBS CIRCLE JUNCTION ASHOK NAGAR BENGALURU KARNATAKA PIN560001 INDIA,ROAD_SEGMENT,333,1.12012012012012,2.3813813813813813,85,12.973687628528529,77.61431803033034,5.811140992976701,34.410749334588765,3.003003003003002,43.87917329093799,55.333333333333336,32.78952509918488,121,HIGH,High priority enforcement zone
SRI VENKATARANGA AYANGAR ROAD ACHARYA SRI RAMANUJA CIRCLE MALLESHWARAM BENGALURU KARNATAKA PIN560003 INDIA,ROAD_SEGMENT,308,1.603896103896104,2.340909090909091,82,13.001380474350649,77.57129589772728,5.733341276897746,32.98621645154161,15.0974025974026,42.593582887700535,53.33333333333334,32.695059232025244,122,HIGH,High priority enforcement zone
BTP219 - Canara Bank Junction,JUNCTION,315,1.3492063492063493,2.292063492063492,83,12.931163036825396,77.58447701111112,5.755742213586912,33.39638338444391,8.730158730158733,41.042016806722685,54.0,32.34222342090713,123,HIGH,High priority enforcement zone
WHITEFIELD ROAD VR MALL DYAVASANDRA INDUSTRIAL ESTATE PHASE 2 MAHADEVAPURA BENGALURU KARNATAKA PIN560048 INDIA,ROAD_SEGMENT,259,3.212355212355212,2.011583011583012,41,12.995785737760825,77.69499355459091,5.560681631015528,29.82477376857753,55.308880308880305,32.1326368385192,26.000000000000007,32.29733888767601,124,HIGH,High priority enforcement zone
OUTER RING ROAD CITILIGHTS LIBERTY APARTMENT KARIYAMMANA AGRAHARA BENGALURU KARNATAKA PIN560103 INDIA,ROAD_SEGMENT,319,1.7899686520376177,2.1724137931034484,47,12.92750226756102,77.679834026649,5.768320995793772,33.626704133483344,19.749216300940443,37.24137931034484,30.000000000000004,32.23835390239796,125,HIGH,High priority enforcement zone
GANGADHARA CHETTY ROAD SRI NAGAMMA DEVI CIRCLE SIVANCHETTI GARDENS BENGALURU KARNATAKA PIN560042 INDIA,ROAD_SEGMENT,314,1.429936305732484,2.4745222929936306,65,12.981917353503183,77.61251803471337,5.752572638825633,33.33834765243513,10.748407643312103,46.837766953915335,42.00000000000001,32.18740723397509,126,HIGH,High priority enforcement zone
80 FEET ROAD BLOCK 2 ARMANE NAGAR BENGALURU KARNATAKA PIN560094 INDIA,ROAD_SEGMENT,276,1.8623188405797104,2.858695652173913,67,13.027839202536232,77.5743399728261,5.6240175061873385,30.984469991212205,21.55797101449276,59.04092071611253,43.33333333333334,32.06208579689134,127,HIGH,High priority enforcement zone
MBT ROAD YSM LAYOUT KR PURAM BENGALURU KARNATAKA PIN560036 INDIA,ROAD_SEGMENT,246,2.756097560975609,2.256097560975609,79,13.0100898848374,77.69734827097561,5.5093883366279774,28.885580308530344,43.902439024390226,39.89956958393112,51.33333333333334,32.060353295126525,128,HIGH,High priority enforcement zone
AYYAPPA TEMPLE ROAD FORTUNE ACACIA BYATARAYANAPURA BENGALURU KARNATAKA PIN560092 INDIA,ROAD_SEGMENT,330,1.906060606060606,1.6424242424242423,40,13.070301445757575,77.58764071060607,5.802118375377063,34.24554287742381,22.65151515151515,20.40641711229946,25.333333333333336,31.948573339372203,129,HIGH,High priority enforcement zone
5TH MAIN ROAD DHONDUSA LAYOUT BASAVANAGUDI BENGALURU KARNATAKA PIN560004 INDIA,ROAD_SEGMENT,312,1.3782051282051282,2.269230769230769,66,12.941863910897435,77.56718564807693,5.746203190540153,33.22172141024773,9.455128205128204,40.31674208144797,42.66666666666667,31.67206038611674,130,HIGH,High priority enforcement zone
"BTP101 - Blood Bank Circle, KH Road",JUNCTION,370,1.2864864864864864,1.2567567567567568,45,12.961951403783784,77.59620212432432,5.916202062607435,36.334444637862106,7.162162162162161,8.155802861685219,28.666666666666675,31.624895402923496,131,HIGH,High priority enforcement zone
OUTER RING ROAD VAJRAM ESTEVA DEVARA BEESANA HALLI BENGALURU KARNATAKA PIN560103 INDIA,ROAD_SEGMENT,276,2.119565217391304,2.351449275362319,58,12.930360725708058,77.68567251765575,5.6240175061873385,30.984469991212205,27.989130434782606,42.92838874680307,37.33333333333334,31.599575140454846,132,HIGH,High priority enforcement zone
OUTER RING ROAD SHARADAMMA LAYOUT MUNNEKOLALA BENGALURU KARNATAKA PIN560037 INDIA,ROAD_SEGMENT,183,3.950819672131148,3.19672131147541,59,12.951091289540752,77.69990260323988,5.214935757608986,23.4940775826733,73.7704918032787,69.77820636451304,38.00000000000001,31.561221564692165,133,HIGH,High priority enforcement zone
BTP017 - Attiguppe Circle,JUNCTION,341,2.029325513196481,1.2287390029325511,23,12.960580663636362,77.52974374457479,5.834810737062605,34.84414845842954,25.733137829912025,7.265827151975151,14.000000000000002,31.511923907333593,134,HIGH,High priority enforcement zone
4TH MAIN ROAD SRI BASAVESHWARA HBCS PHASE 1 CHANDRA LAYOUT STAGE 2 BENGALURU KARNATAKA PIN560040 INDIA,ROAD_SEGMENT,356,1.9662921348314608,1.0224719101123596,13,12.96096030252809,77.52762992106742,5.877735781779639,35.63011710699926,24.157303370786522,0.7138136153337749,7.333333333333333,31.322181370111416,135,HIGH,High priority enforcement zone
WHITEFIELD ROAD SADARAMANGALA INDUSTRIAL AREA WHITEFIELD BENGALURU KARNATAKA PIN560066 INDIA,ROAD_SEGMENT,245,4.0081632653061225,1.0244897959183674,22,12.987805376734697,77.73434950244898,5.5053315359323625,28.811299240653355,75.20408163265306,0.7779111644657888,13.333333333333334,31.275009780677948,136,HIGH,High priority enforcement zone
KADUBEESANAHALLI UNDERPASS INDIQUBE ALPHA REDDY LAYOUT KADUBISANAHALLI BENGALURU KARNATAKA PIN560103 INDIA,ROAD_SEGMENT,177,4.836158192090395,2.785310734463277,18,12.939777459322036,77.69572224519774,5.181783550292085,22.887052109462136,95.90395480225989,56.70987038883351,10.666666666666668,31.26886402057071,137,HIGH,High priority enforcement zone
RONALD COLACO ROAD SADAHALLI GATE JUNCTION NAVARATHNA AGRAHARA BENGALURU KARNATAKA PIN562157 INDIA,ROAD_SEGMENT,235,2.6595744680851063,2.693617021276596,61,13.19111634425532,77.64601458510639,5.4638318050256105,28.051428455851514,41.48936170212766,53.79724655819778,39.333333333333336,31.24660792947054,138,HIGH,High priority enforcement zone
KARIYAMMANA AGRAHARA ROAD PRESTIGE SILVER CREST KADUBISANAHALLI BENGALURU KARNATAKA PIN560103 INDIA,ROAD_SEGMENT,337,1.6201780415430267,1.3471810089020773,41,12.93537823701488,77.69017847461728,5.823045895483019,34.62873117236962,15.504451038575667,11.028102635713044,26.000000000000007,31.104835173538916,139,HIGH,High priority enforcement zone
OUTER RING ROAD KOTTURU DOORAVANI NAGAR BENGALURU KARNATAKA PIN560016 INDIA,ROAD_SEGMENT,246,2.4227642276422765,2.4390243902439024,62,13.000229532896496,77.67619468528744,5.5093883366279774,28.885580308530344,35.56910569105691,45.71018651362984,40.00000000000001,30.95088414161146,140,HIGH,High priority enforcement zone
OLD MADRAS ROAD GOPALAN SIGNATURE MALL NAGAVARA PALYA CV RAMAN NAGAR BENGALURU KARNATAKA PIN560093 INDIA,ROAD_SEGMENT,344,1.069767441860465,1.4215116279069768,60,12.993327398546512,77.66190314186046,5.84354441703136,35.004064392992554,1.7441860465116255,13.389192886456913,38.66666666666667,30.780463096701386,141,HIGH,High priority enforcement zone
BTP218 - Syndicate Bank Junction,JUNCTION,313,1.5527156549520766,1.4536741214057507,63,12.934808119808308,77.58443331246006,5.749392985908253,33.28012738678676,13.817891373801917,14.410825032888553,40.66666666666667,30.759765631787364,142,HIGH,High priority enforcement zone
BTP091 - Sirsi Circle,JUNCTION,234,2.388888888888889,2.5384615384615383,71,12.962153276923075,77.55868955213674,5.459585514144159,27.973677773760684,34.72222222222222,48.86877828054298,46.00000000000001,30.594603355257924,143,HIGH,High priority enforcement zone
"BTP115 - Sahasra Hospital, Jayanagar",JUNCTION,286,1.3076923076923077,1.9685314685314683,90,12.9172537672404,77.57373717884926,5.659482215759621,31.633837977621848,7.6923076923076925,30.765117235705468,58.66666666666668,30.547890346446856,144,HIGH,High priority enforcement zone
SIDDAVANAHALLI KRISHNA SHARMA ROAD PARISARA ORGANIC JUNCTION MALLESHWARAM BENGALURU KARNATAKA PIN560003 INDIA,ROAD_SEGMENT,267,1.8314606741573036,2.5580524344569286,44,12.998763099625467,77.56943565805244,5.5909869805108565,30.37967254024554,20.78651685393259,49.49107732980833,28.000000000000004,30.256943584080112,145,HIGH,High priority enforcement zone
BHADRAPPA FLYOVER NAGASHETTY HALLI RMV STAGE 2 BENGALURU KARNATAKA PIN560094 INDIA,ROAD_SEGMENT,298,1.62751677852349,1.436241610738255,58,13.04750597852349,77.57600518791946,5.700443573390687,32.383851008781114,15.687919463087251,13.857086458744572,37.33333333333334,30.035393742937515,146,HIGH,High priority enforcement zone
17TH CROSS ROAD THE METROPOLITAN COOPERATIVE HOUSING SOCIETY SECTOR 4 HSR LAYOUT BENGALURU KARNATAKA PIN560102 INDIA,ROAD_SEGMENT,293,1.552901023890785,1.4334470989761092,66,12.912328379483826,77.63679742387639,5.683579767338681,32.075070367087875,13.822525597269625,13.768319614535235,42.66666666666667,29.864058167457358,147,HIGH,High priority enforcement zone
4TH MAIN ROAD NAGAPPA BLOCK SRIRAMPURAM BENGALURU KARNATAKA PIN560021 INDIA,ROAD_SEGMENT,339,1.3569321533923304,1.233038348082596,24,12.996299526548672,77.56314324454277,5.8289456176102075,34.736756607353115,8.92330383480826,7.402394586153049,14.666666666666666,29.785188732004308,148,HIGH,High priority enforcement zone
"BTP163 - 16th Main Road, BTM Layout",JUNCTION,306,1.2222222222222223,1.738562091503268,50,12.915033824836602,77.6085400879085,5.726847747587197,32.86731825375746,5.555555555555558,23.460207612456745,32.00000000000001,29.622420539184365,149,HIGH,High priority enforcement zone
DICKENSON ROAD SIVANCHETTI GARDENS BENGALURU KARNATAKA PIN560042 INDIA,ROAD_SEGMENT,250,1.508,2.808,64,12.9798050624,77.613697476,5.5254529391317835,29.179727326965853,12.7,57.430588235294124,41.333333333333336,29.551977940004058,150,HIGH,High priority enforcement zone
BTP180 - Swagath Poornima Theatre,JUNCTION,238,1.4705882352941178,2.957983193277311,79,12.960481449159664,77.58728192941176,5.476463551931511,28.282719002201606,11.764705882352944,62.194760257044,51.33333333333334,29.479050469515446,151,HIGH,High priority enforcement zone
BTP220 - Puttanna Junction,JUNCTION,259,1.1853281853281854,2.455598455598456,86,12.928846537837838,77.58284284401545,5.560681631015528,29.82477376857753,4.633204633204635,46.23665682489214,56.00000000000001,29.434972319427096,152,HIGH,High priority enforcement zone
BTP041 - Gopal Gowda Circle,JUNCTION,288,1.7118055555555556,1.5694444444444444,42,12.977331819791663,77.59037287222222,5.666426688112432,31.76099305890714,17.79513888888889,18.08823529411765,26.66666666666667,29.42605343405382,153,HIGH,High priority enforcement zone
MARATHAHALLI UNDERPASS ASHWATH NAGAR MARATHAHALLI BENGALURU KARNATAKA PIN560037 INDIA,ROAD_SEGMENT,301,1.4817275747508305,1.2491694352159468,55,12.957988094019932,77.70100437275748,5.71042701737487,32.56665044505533,12.043189368770763,7.914793824506544,35.333333333333336,29.420045650813336,154,HIGH,High priority enforcement zone
OLD AIRPORT ROAD MANIPAL HOSPITAL JUNCTION KODIHALLI BENGALURU KARNATAKA PIN560008 INDIA,ROAD_SEGMENT,248,1.7701612903225807,2.1370967741935485,75,12.95964890248966,77.64902232325689,5.517452896464707,29.033244480762853,19.25403225806452,36.119544592030365,48.66666666666667,29.391309373351586,155,HIGH,High priority enforcement zone
DOMLUR INNER RING ROAD HAL STAGE 2 INDIRANAGAR BENGALURU KARNATAKA PIN560008 INDIA,ROAD_SEGMENT,299,1.5117056856187292,1.173913043478261,57,12.96933027133438,77.64138357662121,5.703782474656201,32.44498715278896,12.79264214046823,5.52429667519182,36.66666666666667,29.344802103370917,156,HIGH,High priority enforcement zone
BTP155 - Katriguppe Junction,JUNCTION,302,1.4304635761589404,1.3741721854304636,40,12.926698476490069,77.55074283940397,5.713732805509369,32.627180279087156,10.76158940397351,11.885469419555905,25.333333333333336,29.03884330131154,157,HIGH,High priority enforcement zone
BTP109 - Dewan Madhava Rao Junction,JUNCTION,278,1.4820143884892083,1.7553956834532374,51,12.94087507589928,77.57245704028777,5.631211781821365,31.116199035055693,12.050359712230208,23.99492170969107,32.66666666666667,28.931074618085464,158,HIGH,High priority enforcement zone
"BTP117 - 9th Cross, Kanakapura Road",JUNCTION,240,1.6791666666666667,2.4125,69,12.912369017083334,77.57325361166666,5.484796933490655,28.435305369559714,16.979166666666668,44.86764705882354,44.66666666666667,28.922876648588954,159,HIGH,High priority enforcement zone
PANATHUR MAIN ROAD DARSHAN LAYOUT KADUBISANAHALLI BENGALURU KARNATAKA PIN560103 INDIA,ROAD_SEGMENT,202,2.9405940594059405,1.935643564356436,71,12.938624558454627,77.69697070460548,5.313205979041787,25.293430702590626,48.51485148514851,29.72044263249856,46.00000000000001,28.872251842212282,160,HIGH,High priority enforcement zone
6TH MAIN ROAD VINAYAKA NAGAR HEBBAL BENGALURU KARNATAKA PIN560024 INDIA,ROAD_SEGMENT,273,1.1318681318681318,1.9267399267399268,75,13.035032866300366,77.58896344688645,5.6131281063880705,30.785082270118714,3.296703296703296,29.437621202327087,48.66666666666667,28.862950539214992,161,HIGH,High priority enforcement zone
SIR CV RAMAN HOSPITAL ROAD THE JUNCTION INDIRANAGAR BENGALURU KARNATAKA PIN560008 INDIA,ROAD_SEGMENT,193,3.098445595854922,2.5803108808290154,45,12.970754586194316,77.64737955619121,5.267858159063328,24.463100413618122,52.461139896373055,50.1981103322158,28.666666666666675,28.759833170475925,162,HIGH,High priority enforcement zone
BELLARY ROAD ESTEEM MALL HEBBAL KEMPAPURA BENGALURU KARNATAKA PIN560024 INDIA,ROAD_SEGMENT,226,1.845132743362832,2.743362831858407,59,13.050138892920357,77.59286849823009,5.424950017481403,27.339492889760685,21.128318584070797,55.377407600208215,38.00000000000001,28.653296550226045,163,HIGH,High priority enforcement zone
ITPL MAIN ROAD PEBBLE CREEK AECS LAYOUT KUNDALHALLI BENGALURU KARNATAKA PIN560037 INDIA,ROAD_SEGMENT,237,1.9873417721518989,2.316455696202532,46,12.963521833333331,77.71758905822784,5.472270673671475,28.205946318995757,24.683544303797472,41.816827997021605,29.33333333333334,28.590619552094104,164,HIGH,High priority enforcement zone
ITPL MAIN ROAD SJR BROOKLYN APARTMENT KUNDALHALLI BENGALURU KARNATAKA PIN560037 INDIA,ROAD_SEGMENT,208,2.4278846153846154,2.5673076923076925,58,12.97162358330836,77.71200882109129,5.342334251964811,25.826776898393046,35.69711538461539,49.785067873303184,37.33333333333334,28.587053117507804,165,HIGH,High priority enforcement zone
OUTER RING ROAD BELLANDUR CIRCLE BELLANDUR BENGALURU KARNATAKA PIN560103 INDIA,ROAD_SEGMENT,247,1.582995951417004,2.279352226720648,58,12.926177225239565,77.6766319693204,5.5134287461649825,28.959561250062315,14.5748987854251,40.6382472017147,37.33333333333334,28.523717905344764,166,HIGH,High priority enforcement zone
OUTER RING ROAD PRESTIGE SILVER CREST KADUBISANAHALLI BENGALURU KARNATAKA PIN560103 INDIA,ROAD_SEGMENT,207,2.9420289855072466,1.85024154589372,53,12.934366983284708,77.68996402173946,5.337538079701318,25.738957746261804,48.550724637681164,27.007672634271113,34.0,28.496622292491114,167,HIGH,High priority enforcement zone
GOLF AVENUE ROAD MUNIALLAPPA GARDEN KODIHALLI BENGALURU KARNATAKA PIN560008 INDIA,ROAD_SEGMENT,267,1.0823970037453183,2.217228464419476,58,12.958788228838952,77.64545065543071,5.5909869805108565,30.37967254024554,2.059925093632958,38.66490416391278,37.33333333333334,28.309642416422037,168,HIGH,High priority enforcement zone
OLD MADRAS ROAD GOPALAN GRAND MALL NAGAVARA PALYA CV RAMAN NAGAR BENGALURU KARNATAKA PIN560093 INDIA,ROAD_SEGMENT,260,1.842307692307692,1.1307692307692307,57,12.99402732923077,77.66320036846153,5.564520407322694,29.895062753625634,21.0576923076923,4.153846153846152,36.66666666666667,28.062845074695378,169,HIGH,High priority enforcement zone
14TH MAIN ROAD THE METROPOLITAN COOPERATIVE HOUSING SOCIETY SECTOR 4 HSR LAYOUT BENGALURU KARNATAKA PIN560102 INDIA,ROAD_SEGMENT,268,1.2014925373134329,1.4776119402985075,68,12.911650766791045,77.63806698955224,5.594711379601839,30.447867248942305,5.037313432835822,15.171202809482004,44.00000000000001,27.820585282911527,170,HIGH,High priority enforcement zone
NEELADRI ROAD HIMAGIRI RESIDENCY BETTADASANAPURA BENGALURU KARNATAKA PIN560100 INDIA,ROAD_SEGMENT,240,1.2958333333333334,2.433333333333333,63,12.8416309125,77.64455370083333,5.484796933490655,28.435305369559714,7.395833333333335,45.52941176470588,40.66666666666667,27.797631550549735,171,HIGH,High priority enforcement zone
ITPL MAIN ROAD VIJETHA LAPIS LAZATI BROOKEFIELD BENGALURU KARNATAKA PIN560037 INDIA,ROAD_SEGMENT,237,1.9535864978902957,1.7552742616033756,51,12.965677100843882,77.7182933763713,5.472270673671475,28.205946318995757,23.839662447257393,23.991064780342526,32.66666666666667,27.78160987227281,172,HIGH,High priority enforcement zone
HOSAPALYA MAIN ROAD BKL COLONY BOMMANAHALLI BENGALURU KARNATAKA PIN560068 INDIA,ROAD_SEGMENT,223,2.0,2.0762331838565022,54,12.90644212690583,77.6303840161435,5.4116460518550396,27.095893845125996,25.0,34.186230546030075,34.66666666666667,27.619359936735638,173,HIGH,High priority enforcement zone
BTP225 - Geetha Junction,JUNCTION,256,1.28515625,1.640625,67,12.928362390234376,77.58585931132812,5.54907608489522,29.612273223494313,7.12890625,20.34926470588236,43.33333333333334,27.58683910575624,174,HIGH,High priority enforcement zone
ST JOHN ROAD SRI NAGAMMA DEVI CIRCLE SIVANCHETTI GARDENS BENGALURU KARNATAKA PIN560042 INDIA,ROAD_SEGMENT,233,1.5407725321888412,2.1974248927038627,61,12.982215567381974,77.61233328669529,5.455321115357702,27.895595531255204,13.519313304721031,38.03584953294622,39.333333333333336,27.536866898790247,175,MEDIUM,Regular patrol recommended
MIDFORD GARDEN LANE CRAIG PARK LAYOUT ASHOK NAGAR BENGALURU KARNATAKA PIN560001 INDIA,ROAD_SEGMENT,257,1.906614785992218,1.2295719844357975,27,12.971426486381322,77.6181687311284,5.552959584921617,29.68338111138562,22.66536964980545,7.292286564431216,16.666666666666668,27.211189515643937,176,MEDIUM,Regular patrol recommended
DR RAJKUMAR PUNIYA BHOOMI ROAD BLOCK 2 NANDINI LAYOUT BENGALURU KARNATAKA PIN560096 INDIA,ROAD_SEGMENT,170,3.111764705882353,2.7411764705882358,45,13.01846809,77.53180443117647,5.14166355650266,22.152444667415928,52.794117647058826,55.30795847750867,28.666666666666675,27.200098755847392,177,MEDIUM,Regular patrol recommended
OUTER RING ROAD BELLANDUR BENGALURU KARNATAKA PIN560103 INDIA,ROAD_SEGMENT,234,1.4273504273504274,2.111111111111111,61,12.92680604005536,77.67858194547037,5.459585514144159,27.973677773760684,10.683760683760685,35.294117647058826,39.333333333333336,27.17869083640423,178,MEDIUM,Regular patrol recommended
BTP100 - Richmond Circle,JUNCTION,282,1.148936170212766,1.198581560283688,43,12.962778890780143,77.59828950851063,5.645446897643238,31.37684768011839,3.7234042553191515,6.307884856070089,27.333333333333336,27.1558794790968,179,MEDIUM,Regular patrol recommended
HOSUR ROAD KRIMSON SQUARE MUNESHWARA NAGAR HSR LAYOUT BENGALURU KARNATAKA PIN560102 INDIA,ROAD_SEGMENT,204,1.7009803921568627,2.4950980392156863,80,12.91226537821322,77.62579092606842,5.3230099791384085,25.472944474965587,17.524509803921568,47.491349480968864,52.0,27.105374034413074,180,MEDIUM,Regular patrol recommended
BTP098 - Nayandahalli Junction,JUNCTION,159,2.911949685534591,3.2138364779874213,52,12.944968452830189,77.52777250314465,5.075173815233827,20.935000342469724,47.79874213836478,70.32186459489458,33.333333333333336,26.710634384223656,181,MEDIUM,Regular patrol recommended
"BTP197 - 9th Cross, 24th Main, JP Nagar",JUNCTION,202,1.935643564356436,2.3069306930693068,61,12.911649257920793,77.58617407673268,5.313205979041787,25.293430702590626,23.3910891089109,41.51426907396622,39.333333333333336,26.61623359332857,182,MEDIUM,Regular patrol recommended
12TH MAIN ROAD THE JUNCTION INDIRANAGAR BENGALURU KARNATAKA PIN560008 INDIA,ROAD_SEGMENT,172,2.9011627906976742,2.5872093023255816,44,12.970410125265271,77.64653738131663,5.153291594497779,22.36535704453255,47.529069767441854,50.41723666210671,28.000000000000004,26.566054445475565,183,MEDIUM,Regular patrol recommended
OUTER RING ROAD SHILPITHA TECH PARK KARIYAMMANA AGRAHARA BENGALURU KARNATAKA PIN560103 INDIA,ROAD_SEGMENT,203,1.9064039408866995,2.2758620689655173,61,12.930731785021,77.68561474857255,5.318119993844216,25.38340758202725,22.660098522167488,40.52738336713996,39.333333333333336,26.565771752862215,184,MEDIUM,Regular patrol recommended
BELLARY ROAD HGH LAYOUT GANGA NAGAR BENGALURU KARNATAKA PIN560032 INDIA,ROAD_SEGMENT,206,1.7378640776699028,2.320388349514563,64,13.024101518446605,77.58491351650486,5.332718793265369,25.650715367666677,18.44660194174757,41.94174757281553,41.333333333333336,26.528986533615544,185,MEDIUM,Regular patrol recommended
BRIGADE ROAD ST PATRICKS COMPLEX ASHOK NAGAR BENGALURU KARNATAKA PIN560025 INDIA,ROAD_SEGMENT,241,1.4813278008298756,1.6348547717842323,43,12.970196158590936,77.6066819593473,5.488937726156687,28.511124352095017,12.03319502074689,20.16597510373444,27.333333333333336,26.387184405604092,186,MEDIUM,Regular patrol recommended
MUMBAI BENGALURU HIGHWAY GORGUNTEPALYA JUNCTION YESHWANTHPUR BENGALURU KARNATAKA PIN560022 INDIA,ROAD_SEGMENT,176,2.6420454545454546,2.2045454545454546,62,13.030476828977273,77.53680760397728,5.176149732573829,22.783895452841374,41.05113636363637,38.2620320855615,40.00000000000001,26.245331602914813,187,MEDIUM,Regular patrol recommended
AYYAPPA TEMPLE ROAD FORTUNA ACACIA BYATARAYANAPURA BENGALURU KARNATAKA PIN560092 INDIA,ROAD_SEGMENT,237,1.780590717299578,1.2784810126582278,37,13.070339199156118,77.58760272025316,5.472270673671475,28.205946318995757,19.514767932489452,8.845867460908414,23.333333333333332,26.12519388815764,188,MEDIUM,Regular patrol recommended
SHRI RAMALINGESHWARA CAVE TEMPLE ROAD ROYAL MEENAKSHI MALL HULIMAVU BENGALURU KARNATAKA PIN560076 INDIA,ROAD_SEGMENT,247,1.6072874493927125,1.3157894736842106,29,12.876290856275304,77.59626138137652,5.5134287461649825,28.959561250062315,15.182186234817813,10.030959752321984,18.000000000000004,26.087415611147733,189,MEDIUM,Regular patrol recommended
OUTER RING ROAD VASWANI MELROSE CHANDANA KADUBISANAHALLI BENGALURU KARNATAKA PIN560103 INDIA,ROAD_SEGMENT,187,2.262032085561497,2.379679144385027,48,12.932838835078018,77.68841676398814,5.236441962829949,23.887861751444962,31.550802139037426,43.82510223340674,30.66666666666667,25.989958060063383,190,MEDIUM,Regular patrol recommended
BTP037 - KR Circle,JUNCTION,197,1.6395939086294415,2.49746192893401,64,12.976498707614212,77.58648587005077,5.288267030694535,24.836792121117902,15.989847715736039,47.56643774260974,41.333333333333336,25.91340702226508,191,MEDIUM,Regular patrol recommended
BTP078 - NR Square Junction,JUNCTION,205,1.6829268292682926,2.1707317073170733,57,12.965887268780488,77.58540834780489,5.327876168789581,25.5620456635381,17.073170731707314,37.18794835007175,36.66666666666667,25.849684354838132,192,MEDIUM,Regular patrol recommended
"BTP188 - 27th Cross, 4th Main, Jayanagar",JUNCTION,256,1.21484375,1.2734375,31,12.929678117578124,77.58056281445313,5.54907608489522,29.612273223494313,5.37109375,8.685661764705882,19.333333333333336,25.627877708697415,193,MEDIUM,Regular patrol recommended
OUTER RING ROAD SALARPURIA SATTVA EMINENCE KADUBISANAHALLI BENGALURU KARNATAKA PIN560103 INDIA,ROAD_SEGMENT,149,3.476510067114094,2.563758389261745,35,12.943847944056124,77.69795013887014,5.0106352940962555,19.75328336177533,61.91275167785235,49.67232530596132,22.0,25.57751812250357,194,MEDIUM,Regular patrol recommended
QUEENS ROAD RAJIV GANDHI COLONY SHIVAJI NAGAR BENGALURU KARNATAKA PIN560051 INDIA,ROAD_SEGMENT,202,1.7524752475247525,2.0247524752475248,57,12.988918235643563,77.59900880198019,5.313205979041787,25.293430702590626,18.81188118811881,32.55096097845079,36.66666666666667,25.576814063140255,195,MEDIUM,Regular patrol recommended
PIPELINE ROAD DR RAJKUMAR ROAD 17TH CROSS JUNCTION RAJAJI NAGAR BENGALURU KARNATAKA PIN560010 INDIA,ROAD_SEGMENT,237,1.751054852320675,1.0675105485232068,29,13.008943419409285,77.5554476721519,5.472270673671475,28.205946318995757,18.776371308016877,2.1444527177959802,18.000000000000004,25.449616821888092,196,MEDIUM,Regular patrol recommended
BTP207 - 8th Main Road Basaveshwara Nagar,JUNCTION,201,2.044776119402985,2.029850746268657,32,12.991908099004974,77.53847755970149,5.308267697401205,25.203009491083648,26.119402985074625,32.712906057945574,20.0,25.40999319427166,197,MEDIUM,Regular patrol recommended
MUMBAI BENGALURU HIGHWAY WTC ANNEXE MALLESHWARAM WEST BENGALURU KARNATAKA PIN560055 INDIA,ROAD_SEGMENT,139,3.726618705035971,2.525179856115108,37,13.015360015619436,77.55518152011204,4.941642422609304,18.490006076428088,68.16546762589928,48.4468895471858,23.333333333333332,25.197562767758356,198,MEDIUM,Regular patrol recommended
RAILWAY LINE ROAD NGEF LAYOUT BENAIGANAHALLI BENGALURU KARNATAKA PIN560038 INDIA,ROAD_SEGMENT,128,4.96875,1.984375,4,12.99161359609375,77.652420359375,4.859812404361672,16.991677320371977,99.21875,31.268382352941178,1.3333333333333335,25.14530264061131,199,MEDIUM,Regular patrol recommended
KODIGEHALLI MAIN ROAD ARYAV GREENFIELDS KADUGODI KR PURAM BENGALURU KARNATAKA PIN560067 INDIA,ROAD_SEGMENT,128,5.0,1.2265625,36,13.00346208828125,77.72350646796875,4.859812404361672,16.991677320371977,100.0,7.196691176470588,22.666666666666668,25.086509748454446,200,MEDIUM,Regular patrol recommended
BTP034 - LRDE Junction,JUNCTION,192,1.6770833333333333,2.1666666666666665,60,12.988384140474446,77.59182173529831,5.262690188904886,24.368473546061985,16.927083333333332,37.05882352941176,38.66666666666667,24.973761679986843,201,MEDIUM,Regular patrol recommended
ROBERTSON ROAD SRI RAMAKRISHNAPPA CIRCLE FRAZER TOWN BENGALURU KARNATAKA PIN560005 INDIA,ROAD_SEGMENT,212,1.4858490566037736,1.259433962264151,62,12.999928373584906,77.6110361254717,5.3612921657094255,26.173901192468453,12.146226415094342,8.240843507214212,40.00000000000001,24.56578577084491,202,MEDIUM,Regular patrol recommended
PANATHUR MAIN ROAD MARIYAPPA LAYOUT KADUBISANAHALLI BENGALURU KARNATAKA PIN560103 INDIA,ROAD_SEGMENT,151,3.1125827814569536,2.1125827814569536,46,12.936039194954002,77.69747334933776,5.0238805208462765,19.995806882422528,52.81456953642384,35.34086482275029,29.33333333333334,24.51181236738459,203,MEDIUM,Regular patrol recommended
MARATHAHALLI UNDERPASS MARATHAHALLI BENGALURU KARNATAKA PIN560037 INDIA,ROAD_SEGMENT,198,1.696969696969697,1.5505050505050506,60,12.957375212817492,77.70101846602428,5.293304824724492,24.92903543016043,17.424242424242426,17.486631016042786,38.66666666666667,24.49331747068806,204,MEDIUM,Regular patrol recommended
HOSUR ROAD OZONE MANAY TECH PARK GARVEBHAVI PALYA BENGALURU KARNATAKA PIN560068 INDIA,ROAD_SEGMENT,163,2.128834355828221,2.6932515337423317,57,12.891529695051236,77.63830211920536,5.099866427824199,21.38712845264985,28.220858895705526,53.78563695416818,36.66666666666667,24.454403832732176,205,MEDIUM,Regular patrol recommended
"BTP177 - Aurobindo Circle, ORR",JUNCTION,169,1.8461538461538465,2.455621301775148,72,12.916611210650888,77.58522310177514,5.135798437050262,22.045052816339485,21.15384615384616,46.23738252697528,46.66666666666667,24.396629328138303,206,MEDIUM,Regular patrol recommended
7TH CROSS ROAD MICO LAYOUT BTM LAYOUT STAGE 2 BENGALURU KARNATAKA PIN560076 INDIA,ROAD_SEGMENT,236,1.0296610169491525,1.4533898305084745,31,12.913605550423728,77.60532411440677,5.4680601411351315,28.1288503814338,0.7415254237288116,14.401794616151541,19.333333333333336,24.263989244994168,207,MEDIUM,Regular patrol recommended
80 FEET RING ROAD DR RAJKUMAR ROAD 17TH CROSS JUNCTION RAJAJI NAGAR BENGALURU KARNATAKA PIN560010 INDIA,ROAD_SEGMENT,175,1.6285714285714286,2.8057142857142856,51,13.009145078857143,77.55441973771428,5.170483995038151,22.680154336124502,15.714285714285714,57.35798319327732,32.66666666666667,24.216784533325377,208,MEDIUM,Regular patrol recommended
OUTER RING ROAD BELLANDUR AMANIKERE KADUBISANAHALLI BENGALURU KARNATAKA PIN560103 INDIA,ROAD_SEGMENT,150,2.873333333333333,2.4466666666666668,37,12.944771324168563,77.69780928609639,5.017279836814924,19.874946654041715,46.83333333333333,45.9529411764706,23.333333333333332,24.047604382056903,209,MEDIUM,Regular patrol recommended
ITPL MAIN ROAD EMBASSY PARAGON THUBARAHALLI BENGALURU KARNATAKA PIN560066 INDIA,ROAD_SEGMENT,168,2.095238095238096,2.4285714285714284,46,12.95851716904762,77.71578705357143,5.1298987149230735,21.937027381356,27.380952380952394,45.378151260504204,29.33333333333334,24.02329137287192,210,MEDIUM,Regular patrol recommended
BTP214 - 5th Main Chamrajpet  Junction,JUNCTION,171,2.333333333333333,1.8771929824561404,43,12.966109929586068,77.54990258726592,5.147494476813453,22.259210323382096,33.33333333333333,27.863777089783287,27.333333333333336,23.90055711319484,211,MEDIUM,Regular patrol recommended
BTP184 - Lalbagh West Gate,JUNCTION,198,1.4848484848484849,1.676767676767677,45,12.948431843434344,77.58017148585859,5.293304824724492,24.92903543016043,12.121212121212121,21.497326203208562,28.666666666666675,23.663549199743315,212,MEDIUM,Regular patrol recommended
12TH MAIN ROAD KITTUR RANI CHENNAMMA CIRCLE INDIRANAGAR BENGALURU KARNATAKA PIN560008 INDIA,ROAD_SEGMENT,178,1.3876404494382022,2.724719101123596,45,12.970027878085814,77.63857158289811,5.187385805840755,22.989630854610954,9.691011235955054,54.78519497686718,28.666666666666675,23.533398889460962,213,MEDIUM,Regular patrol recommended
SIDDAVANAHALLI KRISHNA SHARMA ROAD MALLESHWARAM BENGALURU KARNATAKA PIN560003 INDIA,ROAD_SEGMENT,174,1.8505747126436785,2.333333333333333,35,12.99981528045977,77.56937729310344,5.1647859739235145,22.575822098743835,21.264367816091962,42.35294117647059,22.0,23.404741519427795,214,MEDIUM,Regular patrol recommended
BTP119 - Minerva Circle,JUNCTION,169,2.0236686390532546,1.881656804733728,55,12.955121484615384,77.58028918816568,5.135798437050262,22.045052816339485,25.591715976331365,28.005569091541954,35.333333333333336,23.36215897194849,215,MEDIUM,Regular patrol recommended
BTP052 - CID Carlton House Junction,JUNCTION,179,1.3519553072625698,2.547486033519553,45,12.980890437209254,77.58764691168417,5.19295685089021,23.09163812746312,8.798882681564246,49.15543871179758,28.666666666666675,23.244304039050135,216,MEDIUM,Regular patrol recommended
CHINMAYA MISSION HOSPITAL ROAD KFC CIRCLE INDIRANAGAR BENGALURU KARNATAKA PIN560038 INDIA,ROAD_SEGMENT,168,2.4345238095238093,1.5654761904761905,36,12.978182914285716,77.63967562142857,5.1298987149230735,21.937027381356,35.863095238095234,17.96218487394958,22.666666666666668,23.167374005925137,217,MEDIUM,Regular patrol recommended
BTP047 - Vidhan Soudha Metro Station,JUNCTION,189,1.417989417989418,1.809523809523809,49,12.979841192592591,77.59251356560847,5.247024072160486,24.081622904738264,10.449735449735448,25.714285714285705,31.333333333333336,23.16265282114511,218,MEDIUM,Regular patrol recommended
OLD MADRAS ROAD LIDO MALL SOMESHWARPURA HALASURU BENGALURU KARNATAKA PIN560008 INDIA,ROAD_SEGMENT,184,1.1630434782608696,2.190217391304348,60,12.973368548913042,77.622270825,5.220355825078324,23.593320417063225,4.07608695652174,37.80690537084401,38.66666666666667,23.10594363117829,219,MEDIUM,Regular patrol recommended
MUMBAI BENGALURU HIGHWAY GODREJ TIARA YESHWANTHPUR SUBURB STAGE 2 YESHWANTHPUR BENGALURU KARNATAKA PIN560022 INDIA,ROAD_SEGMENT,127,3.3858267716535435,2.5118110236220472,37,13.029202177952756,77.53895183858268,4.852030263919617,16.849184320153988,59.645669291338585,48.02223251505327,23.333333333333332,23.011692677676383,220,MEDIUM,Regular patrol recommended
OUTER RING ROAD CITILIGHTS LIBERY APARTMENT KARIYAMMANA AGRAHARA BENGALURU KARNATAKA PIN560103 INDIA,ROAD_SEGMENT,186,1.446236559139785,2.150537634408602,27,12.92761550107527,77.67972027956989,5.231108616854587,23.790206809994263,11.155913978494624,36.546489563567356,16.666666666666668,22.808414657356575,221,MEDIUM,Regular patrol recommended
PADMABHUSHAN DR RK SRIKANTAN ROAD SESHADRIPURAM POLICE STATION JUNCTION SESHADRIPURAM BENGALURU KARNATAKA PIN560020 INDIA,ROAD_SEGMENT,166,1.216867469879518,2.8734939759036147,59,12.98728242891566,77.57435659879519,5.117993812416755,21.719045543575135,5.421686746987953,59.51098511693835,38.00000000000001,22.792954365405823,222,MEDIUM,Regular patrol recommended
80 FEET ROAD KGE LAYOUT RMV STAGE 2 BENGALURU KARNATAKA PIN560094 INDIA,ROAD_SEGMENT,164,1.7926829268292683,2.115853658536585,54,13.02818452682927,77.57267017012195,5.10594547390058,21.498437355430113,19.817073170731707,35.44476327116211,34.66666666666667,22.686028698308704,223,MEDIUM,Regular patrol recommended
BTP009 - Prakash Nagar Junction,JUNCTION,178,1.9606741573033708,1.6235955056179776,29,12.99251078483146,77.5575310719101,5.187385805840755,22.989630854610954,24.01685393258427,19.808327825512233,18.000000000000004,22.6838064682228,224,MEDIUM,Regular patrol recommended
BTP120 - Lalbagh Main Gate Junction,JUNCTION,163,1.5337423312883436,2.552147239263804,55,12.954161373619632,77.58463449325154,5.099866427824199,21.38712845264985,13.34355828220859,49.30350054132084,35.333333333333336,22.675900284073446,225,MEDIUM,Regular patrol recommended
"BTP176 - Rajalakshmi Kalyana Mantapa, JP Nagar",JUNCTION,161,1.8012422360248448,2.260869565217391,53,12.917297671428573,77.5783653173913,5.087596335232384,21.162459890140774,20.03105590062112,40.05115089514067,34.0,22.635631046931763,226,MEDIUM,Regular patrol recommended
BTP216 - Yediyur Junction,JUNCTION,158,1.6329113924050631,2.835443037974684,44,12.93802209089189,77.57687954027875,5.0689042022202315,20.820202109879993,15.822784810126578,58.30230826507821,28.000000000000004,22.553555582170564,227,MEDIUM,Regular patrol recommended
OUTER RING ROAD DODDANEKUNDI BENGALURU KARNATAKA PIN560037 INDIA,ROAD_SEGMENT,131,2.854961832061069,2.4580152671755724,45,12.97913613704766,77.69519119276174,4.882801922586371,17.412621333114387,46.37404580152672,46.3134261338123,28.666666666666675,22.31650628666813,228,MEDIUM,Regular patrol recommended
GNANA BHARATHI ROAD MANASA LAYOUT NAGARBHAVI BENGALURU KARNATAKA PIN560072 INDIA,ROAD_SEGMENT,164,2.256097560975609,1.3841463414634143,39,12.956744285365854,77.51858490792682,5.10594547390058,21.498437355430113,31.402439024390226,12.202295552367282,24.666666666666668,22.18244189773481,229,MEDIUM,Regular patrol recommended
BTP075 - Police Corner,JUNCTION,152,1.6842105263157894,2.6907894736842106,50,12.96872643839462,77.58633180090612,5.030437921392435,20.115874579017134,17.105263157894733,53.707430340557295,32.00000000000001,22.088597496031046,230,MEDIUM,Regular patrol recommended
ITPL MAIN ROAD MS RAMAIAH SILICON FIELD APARTMENT AECS LAYOUT KUNDALHALLI BENGALURU KARNATAKA PIN560037 INDIA,ROAD_SEGMENT,156,1.9871794871794872,2.2051282051282053,39,12.962268080128204,77.71682918910257,5.056245805348308,20.58842359577312,24.679487179487182,38.28054298642535,24.666666666666668,22.086048077221815,231,MEDIUM,Regular patrol recommended
12TH MAIN ROAD OLD THIPPASANDRA INDIRANAGAR BENGALURU KARNATAKA PIN560008 INDIA,ROAD_SEGMENT,132,2.3181818181818183,2.727272727272727,55,12.970382449508978,77.64520430918947,4.890349128221754,17.550812616380906,32.95454545454546,54.8663101604278,35.333333333333336,21.846086813247325,232,MEDIUM,Regular patrol recommended
BEGUR MAIN ROAD VIVEKANANDA CIRCLE BOMMANAHALLI BENGALURU KARNATAKA PIN560068 INDIA,ROAD_SEGMENT,117,3.940170940170941,1.5213675213675213,32,12.906758825641026,77.62835014957265,4.770684624465665,15.35972466483788,73.50427350427353,16.56108597285068,20.0,21.466261380940193,233,MEDIUM,Regular patrol recommended
"BTP033 - Sophia High School, Sankey Road",JUNCTION,161,1.9565217391304348,1.329192546583851,50,12.990396026086955,77.58866933540372,5.087596335232384,21.162459890140774,23.91304347826087,10.456704420898799,32.00000000000001,21.444107480983646,234,MEDIUM,Regular patrol recommended
MARKHAM ROAD ST PATRICKS COMPLEX ASHOK NAGAR BENGALURU KARNATAKA PIN560025 INDIA,ROAD_SEGMENT,202,1.108910891089109,1.0495049504950495,27,12.970004925057342,77.6067570308834,5.313205979041787,25.293430702590626,2.722772277227725,1.5725101921956919,16.666666666666668,21.418980632738393,235,MEDIUM,Regular patrol recommended
BTP105 - Shivasankara Circle,JUNCTION,178,1.4101123595505618,1.5337078651685394,36,12.956886487078652,77.57419385617978,5.187385805840755,22.989630854610954,10.252808988764045,16.953073364177136,22.666666666666668,21.397972584107357,236,MEDIUM,Regular patrol recommended
BTP085 - Briyand Circle,JUNCTION,139,1.9496402877697845,2.431654676258993,58,12.966174915827338,77.56939723597122,4.941642422609304,18.490006076428088,23.741007194244613,45.47608971646213,37.33333333333334,21.306576733056705,237,MEDIUM,Regular patrol recommended
"BTP202 - East End Main Road, Jayanagar",JUNCTION,116,3.5172413793103448,2.181034482758621,28,12.917146362068966,77.59691362068966,4.762173934797756,15.20389174024157,62.93103448275862,37.51521298174443,17.333333333333336,21.198644156223008,238,MEDIUM,Regular patrol recommended
ITPL MAIN ROAD MARUTHI EMERALD THUBARAHALLI BENGALURU KARNATAKA PIN560066 INDIA,ROAD_SEGMENT,145,1.993103448275862,2.2344827586206897,41,12.959804192413792,77.71627265241379,4.983606621708336,19.25838139371899,24.82758620689655,39.21298174442191,26.000000000000007,21.150112822885948,239,MEDIUM,Regular patrol recommended
NETAJI ROAD SRI RAMAKRISHNAPPA CIRCLE FRAZER TOWN BENGALURU KARNATAKA PIN560005 INDIA,ROAD_SEGMENT,161,1.7018633540372672,1.5403726708074534,49,13.000120870186334,77.61108199751553,5.087596335232384,21.162459890140774,17.54658385093168,17.16477895506029,31.333333333333336,21.10953191162547,240,MEDIUM,Regular patrol recommended
20TH MAIN ROAD BLOCK G SAHAKARA NAGAR BENGALURU KARNATAKA PIN560092 INDIA,ROAD_SEGMENT,132,2.106060606060606,2.886363636363636,40,13.062934490909091,77.59212621742424,4.890349128221754,17.550812616380906,27.65151515151515,59.91978609625668,25.333333333333336,21.06845757973574,241,MEDIUM,Regular patrol recommended
CHIKKA BANAVARA RS ROAD PRASAD ENCLAVE JALAHALLI BENGALURU KARNATAKA PIN560015 INDIA,ROAD_SEGMENT,185,1.4594594594594594,1.0,23,13.05046537945946,77.52552964378378,5.225746673713202,23.6920282470522,11.486486486486486,0.0,14.000000000000002,20.80227124629041,242,MEDIUM,Regular patrol recommended
HAL AIRPORT ROAD MARATHAHALLI BENGALURU KARNATAKA PIN560037 INDIA,ROAD_SEGMENT,121,2.6115702479338845,2.413223140495868,52,12.956934171950452,77.70104850240214,4.804021044733257,15.970123124725177,40.28925619834711,44.890617403986404,33.333333333333336,20.71622165648084,243,MEDIUM,Regular patrol recommended
MALLATHAHALLI ROAD BLOCK 12 BDA LAYOUT NAGARBHAVI STAGE 2 BENGALURU KARNATAKA PIN560072 INDIA,ROAD_SEGMENT,127,2.031496062992126,2.811023622047244,55,12.960936141732285,77.5121471448819,4.852030263919617,16.849184320153988,25.787401574803148,57.52663270032423,35.333333333333336,20.70108591528638,244,MEDIUM,Regular patrol recommended
SURANJAN DAS ROAD NADA PRABHU KEMPEGOWDA CIRCLE NEW THIPPASANDRA BENGALURU KARNATAKA PIN560075 INDIA,ROAD_SEGMENT,157,1.2802547770700636,2.2229299363057327,45,12.9717966089172,77.65823168726114,5.062595033026967,20.704679593430285,7.006369426751591,38.84600974147622,28.666666666666675,20.640014437826533,245,MEDIUM,Regular patrol recommended
ALLALASANDRA MAIN ROAD TARALABALU ENCLAVE YELAHANKA BENGALURU KARNATAKA PIN560064 INDIA,ROAD_SEGMENT,168,1.7916666666666667,1.1904761904761905,25,13.093160489285712,77.59411828869048,5.1298987149230735,21.937027381356,19.791666666666668,6.050420168067228,15.333333333333336,20.597976246821496,246,MEDIUM,Regular patrol recommended
"BTP145 - Sri Hatti Maramma Circle, Domluru",JUNCTION,160,1.15,2.15,47,12.961289213222164,77.63616230302713,5.081404364984463,21.049083316631677,3.749999999999998,36.529411764705884,30.000000000000004,20.540737241540636,247,MEDIUM,Regular patrol recommended
"BTP102 - BMTC Junction, KH Road",JUNCTION,140,1.3285714285714283,2.557142857142857,70,12.95558064,77.59289194142858,4.948759890378168,18.620328748434844,8.214285714285708,49.46218487394958,45.333333333333336,20.457467480540593,248,MEDIUM,Regular patrol recommended
AMRUTHA COLLEGE ROAD AZALEA OWNERS COURT LAYOUT KASAVANAHALLI BENGALURU KARNATAKA PIN560035 INDIA,ROAD_SEGMENT,153,1.4509803921568627,1.8496732026143792,53,12.899275452290205,77.67541895048936,5.0369526024136295,20.23516007008289,11.274509803921568,26.989619377162636,34.0,20.365060005316604,249,MEDIUM,Regular patrol recommended
AMRUTHA COLLEGE ROAD KRISTAL JASPER VILLA HARALUR BENGALURU KARNATAKA PIN560035 INDIA,ROAD_SEGMENT,154,1.2597402597402598,2.25974025974026,44,12.900002157792208,77.67545171493506,5.043425116919247,20.35367348136442,6.493506493506496,40.01527883880826,28.000000000000004,20.3330533763826,250,MEDIUM,Regular patrol recommended
SARJAPURA MAIN ROAD KODATHI GATE KODATHI BENGALURU KARNATAKA PIN560035 INDIA,ROAD_SEGMENT,140,1.85,1.8857142857142857,58,12.896664727142856,77.72002891214285,4.948759890378168,18.620328748434844,21.250000000000004,28.134453781512608,37.33333333333334,20.294652354490175,251,MEDIUM,Regular patrol recommended
BTP132 - Anepalya Junction,JUNCTION,147,1.251700680272109,2.687074829931973,39,12.951218263265307,77.60693767210884,4.997212273764115,19.50750439474749,6.292517006802722,53.58943577430972,24.666666666666668,20.148060338527085,252,MEDIUM,Regular patrol recommended
BTP173 - TMC,JUNCTION,133,1.7293233082706767,2.4586466165413534,53,12.982320013533831,77.59870472105264,4.897839799950911,17.68796874923192,18.23308270676692,46.33348076072535,34.0,19.9903573080985,253,MEDIUM,Regular patrol recommended
SRI SANKASTA HARA GANAPATI TEMPLE ROAD HAMPI NAGAR RPC LAYOUT VIJAYA NAGAR STAGE 2 BENGALURU KARNATAKA PIN560104 INDIA,ROAD_SEGMENT,152,1.848684210526316,1.519736842105263,30,12.964350693421054,77.54056164210526,5.030437921392435,20.115874579017134,21.217105263157897,16.50928792569659,18.666666666666668,19.97320791914766,254,MEDIUM,Regular patrol recommended
WHITEFIELD ROAD MUTHUKURAPPA COLONY MAHADEVAPURA BENGALURU KARNATAKA PIN560048 INDIA,ROAD_SEGMENT,130,2.3076923076923075,2.253846153846154,27,12.995076134790729,77.69773732880395,4.875197323201151,17.2733791554739,32.692307692307686,39.82805429864254,16.666666666666668,19.912670141875353,255,MEDIUM,Regular patrol recommended
T MARIYAPPA ROAD MADHAVAN CIRCLE JAYANAGAR EAST BENGALURU KARNATAKA PIN560011 INDIA,ROAD_SEGMENT,160,1.45625,1.175,51,12.937514773125,77.585134611875,5.081404364984463,21.049083316631677,11.406250000000002,5.558823529411766,32.66666666666667,19.89116616310926,256,MEDIUM,Regular patrol recommended
OUTER RING ROAD TIN FACTORY JUNCTION DOORAVANI NAGAR BENGALURU KARNATAKA PIN560016 INDIA,ROAD_SEGMENT,77,4.246753246753247,3.5454545454545454,41,12.99692648959248,77.66978843060497,4.356708826689592,7.779720952238057,81.16883116883118,80.85561497326204,26.000000000000007,19.683440627336665,257,MEDIUM,Regular patrol recommended
MALLATHAHALLI ROAD SRI GURUKRUPA LAYOUT NAGARBHAVI STAGE 2 BENGALURU KARNATAKA PIN560072 INDIA,ROAD_SEGMENT,126,1.5873015873015872,2.738095238095238,63,12.961076246825398,77.51129388174603,4.844187086458591,16.705573716363787,14.68253968253968,55.21008403361345,40.66666666666667,19.626550476359004,258,MEDIUM,Regular patrol recommended
SAUNDERS ROAD PULIKESHI NAGAR FRAZER TOWN BENGALURU KARNATAKA PIN560005 INDIA,ROAD_SEGMENT,136,1.9338235294117647,2.2205882352941178,26,12.99526905367647,77.61085571470588,4.919980925828125,18.09337847910507,23.34558823529412,38.77162629757786,16.0,19.54784292169236,259,MEDIUM,Regular patrol recommended
MAGADI MAIN ROAD HANUMANTHARAYAN PALYA SUNKADAKATTE BENGALURU KARNATAKA PIN560091 INDIA,ROAD_SEGMENT,170,1.347058823529412,1.0823529411764703,26,12.989299253529412,77.50060902529412,5.14166355650266,22.152444667415928,8.676470588235302,2.6159169550172945,16.0,19.520398640507135,260,MEDIUM,Regular patrol recommended
QUEENS ROAD GOVINDA CHETTY COLONY SHIVAJI NAGAR BENGALURU KARNATAKA PIN560051 INDIA,ROAD_SEGMENT,138,1.8623188405797104,1.8623188405797104,41,12.989482696376813,77.59920851376812,4.9344739331306915,18.35874918374616,21.55797101449276,27.3913043478261,26.000000000000007,19.51236166583751,261,MEDIUM,Regular patrol recommended
WHITEFIELD ROAD INTERNATIONAL TECHNOLOGY PARK BANGALORE WHITEFIELD BENGALURU KARNATAKA PIN560066 INDIA,ROAD_SEGMENT,110,3.981818181818182,1.1090909090909091,15,12.987244214545454,77.7354770909091,4.709530201312334,14.239971391737372,74.54545454545455,3.4652406417112314,8.666666666666668,19.453117933354246,262,MEDIUM,Regular patrol recommended
MS RAMAIAH ROAD MATTIKERE LAYOUT MATHIKERE EXTENSION BENGALURU KARNATAKA PIN560054 INDIA,ROAD_SEGMENT,94,4.691489361702128,1.3936170212765957,12,13.03323059255319,77.55830165319149,4.553876891600541,11.389919113724634,92.2872340425532,12.503128911138923,6.666666666666667,19.299148474125307,263,MEDIUM,Regular patrol recommended
60 FEET MAIN ROAD BRIGADE TECH GARDENS BROOKEFIELD BENGALURU KARNATAKA PIN560037 INDIA,ROAD_SEGMENT,143,1.972027972027972,1.3916083916083917,29,12.964838225874129,77.71784822797203,4.969813299576001,19.005822105147384,24.300699300699304,12.439325380501852,18.000000000000004,19.15669388321293,264,MEDIUM,Regular patrol recommended
BTP106 - VV Puram College,JUNCTION,141,1.4326241134751774,2.198581560283688,35,12.952937235924448,77.57425833553773,4.955827057601261,18.749730404464938,10.815602836879435,38.072590738423024,22.0,19.084974144181047,265,MEDIUM,Regular patrol recommended
HAL AIRPORT ROAD MS REDDY NAGAR MARATHAHALLI BENGALURU KARNATAKA PIN560037 INDIA,ROAD_SEGMENT,116,1.9482758620689653,2.543103448275862,60,12.956770415967316,77.7029826077841,4.762173934797756,15.20389174024157,23.70689655172413,49.01622718052739,38.66666666666667,18.91794773972537,266,MEDIUM,Regular patrol recommended
OLD MADRAS ROAD TAMARIKANNAN JUNCTION HALASURU BENGALURU KARNATAKA PIN560008 INDIA,ROAD_SEGMENT,102,3.323529411764706,1.7450980392156863,47,12.978366770588236,77.62866106470588,4.634728988229636,12.87034187252447,58.08823529411765,23.667820069204154,30.000000000000004,18.78848803089155,267,MEDIUM,Regular patrol recommended
HOSAPALYA MAIN ROAD S NAZIR SAB LAYOUT HSR LAYOUT BENGALURU KARNATAKA PIN560068 INDIA,ROAD_SEGMENT,132,1.946969696969697,1.901515151515152,30,12.90662484621212,77.63155961136364,4.890349128221754,17.550812616380906,23.674242424242426,28.636363636363654,18.666666666666668,18.773225850680486,268,MEDIUM,Regular patrol recommended
7TH CROSS ROAD CHIKKA BIDDAPPA LAYOUT GARVEBHAVI PALYA BENGALURU KARNATAKA PIN560068 INDIA,ROAD_SEGMENT,114,2.0,2.8157894736842106,45,12.892978121929824,77.63720238596491,4.74493212836325,14.888189813975394,25.0,57.6780185758514,28.666666666666675,18.72778611330622,269,MEDIUM,Regular patrol recommended
80 FEET RING ROAD ONE BANGALORE WEST RAJAJI NAGAR BENGALURU KARNATAKA PIN560010 INDIA,ROAD_SEGMENT,123,1.6747967479674797,2.6260162601626016,41,13.009403936585366,77.5543151894309,4.820281565605037,16.267857459048685,16.869918699186993,51.64992826398853,26.000000000000007,18.583774250357074,270,MEDIUM,Regular patrol recommended
KONANAKUNTE MAIN ROAD GOPALAN JEWELS SIDDANNA LAYOUT BIKASPURA BENGALURU KARNATAKA PIN560062 INDIA,ROAD_SEGMENT,155,1.1096774193548389,1.3483870967741935,40,12.888326709415049,77.56238110909803,5.049856007249537,20.47142474325169,2.741935483870972,11.06641366223909,25.333333333333336,18.47132069276707,271,MEDIUM,Regular patrol recommended
HOSUR ROAD SINGASANDRA INDUSTRIAL ESTATE BEGUR BENGALURU KARNATAKA PIN560068 INDIA,ROAD_SEGMENT,107,1.9906542056074767,3.5981308411214954,27,12.87566093457944,77.64826353084112,4.68213122712422,13.73828910213727,24.766355140186917,82.52886201209458,16.666666666666668,18.427043229666573,272,MEDIUM,Regular patrol recommended
"BTP168 - MSR Building, JC Road",JUNCTION,123,1.6422764227642277,2.6666666666666665,35,12.961178251219511,77.5842871495935,4.820281565605037,16.267857459048685,16.056910569105693,52.941176470588246,22.0,18.367035847678927,273,MEDIUM,Regular patrol recommended
BTP103 - Shanti Nagar TTMC,JUNCTION,120,1.4666666666666666,2.533333333333333,65,12.953835349166669,77.59173402500001,4.795790545596741,15.8194205610814,11.666666666666664,48.70588235294118,42.00000000000001,18.357497233178847,274,MEDIUM,Regular patrol recommended
JEEVAN BHIMA NAGAR MAIN ROAD INDIAN AIRLINES STAFF QUARTERS INDIRANAGAR BENGALURU KARNATAKA PIN560008 INDIA,ROAD_SEGMENT,103,2.9320388349514563,2.436893203883495,26,12.968704461284243,77.64914954274221,4.6443908991413725,13.047253955248173,48.30097087378641,45.64249000571102,16.0,18.350024751862733,275,MEDIUM,Regular patrol recommended
8TH CROSS ROAD RR PALACE MALLESHWARAM BENGALURU KARNATAKA PIN560003 INDIA,ROAD_SEGMENT,125,1.608,1.96,63,12.9992833064,77.571413896,4.836281906951478,16.560827839105762,15.200000000000003,30.49411764705882,40.66666666666667,18.326701486970887,276,MEDIUM,Regular patrol recommended
HOSA ROAD CHANNAKESHAVA NAGAR SINGASANDRA BENGALURU KARNATAKA PIN560100 INDIA,ROAD_SEGMENT,136,1.9779411764705883,1.4264705882352942,23,12.87046906241651,77.6540038752956,4.919980925828125,18.09337847910507,24.448529411764707,13.546712802768168,14.000000000000002,18.296891364598938,277,MEDIUM,Regular patrol recommended
PALACE ROAD KUMAR PARK VASANT NAGAR BENGALURU KARNATAKA PIN560001 INDIA,ROAD_SEGMENT,145,1.9586206896551723,1.0689655172413792,13,12.99473046551724,77.58966775241379,4.983606621708336,19.25838139371899,23.96551724137931,2.1906693711967518,7.333333333333333,18.27945697433963,278,MEDIUM,Regular patrol recommended
BTP203 - RRMR Junction,JUNCTION,121,1.743801652892562,2.5041322314049586,38,12.967407398347108,77.59355071239669,4.804021044733257,15.970123124725177,18.59504132231405,47.778317938745744,24.000000000000004,18.224518528948835,279,MEDIUM,Regular patrol recommended
MUMBAI BENGALURU HIGHWAY RAMANA JOYTHI APARTMENT YESHWANTHPUR SUBURB STAGE 2 YESHWANTHPUR BENGALURU KARNATAKA PIN560022 INDIA,ROAD_SEGMENT,109,2.3577981651376145,2.256880733944954,47,13.031099866972475,77.53564351559632,4.700480365792417,14.07426656742662,33.944954128440365,39.924446842957366,30.000000000000004,18.1501310089332,280,MEDIUM,Regular patrol recommended
BTP079 - Town Hall Junction,JUNCTION,125,1.592,2.144,46,12.9646550104,77.5848116096,4.836281906951478,16.560827839105762,14.800000000000002,36.338823529411776,29.33333333333334,18.012270114421867,281,MEDIUM,Regular patrol recommended
GANGADHARA CHETTY ROAD NEELKANTA CIRCLE SIVANCHETTI GARDENS BENGALURU KARNATAKA PIN560042 INDIA,ROAD_SEGMENT,123,1.3089430894308942,2.8292682926829267,41,12.9809256,77.614791,4.820281565605037,16.267857459048685,7.723577235772355,58.10616929698709,26.000000000000007,17.991952155665537,282,MEDIUM,Regular patrol recommended
OUTER RING ROAD SUMADHURA PLATINUM SQUARE KADUBISANAHALLI BENGALURU KARNATAKA PIN560037 INDIA,ROAD_SEGMENT,110,2.4363636363636365,2.5636363636363635,15,12.94730492333348,77.69892865220751,4.709530201312334,14.239971391737372,35.909090909090914,49.66844919786096,8.666666666666668,17.89964199752537,283,MEDIUM,Regular patrol recommended
OUTER RING ROAD BELLANDUR JUNCTION BELLANDUR BENGALURU KARNATAKA PIN560103 INDIA,ROAD_SEGMENT,124,1.467741935483871,2.282258064516129,45,12.92570811129032,77.67641624112903,4.8283137373023015,16.414928596087563,11.693548387096776,40.73055028462998,28.666666666666675,17.77115856314456,284,MEDIUM,Regular patrol recommended
BTP122 - Siddapura Junction,JUNCTION,130,1.1692307692307693,2.315384615384616,42,12.948450746153846,77.59290339923078,4.875197323201151,17.2733791554739,4.230769230769233,41.78280542986428,26.66666666666667,17.66425385228259,285,MEDIUM,Regular patrol recommended
MS RAMAIAH ROAD NADA PRABHU KEMPEGOWDA CIRCLE MATHIKERE BENGALURU KARNATAKA PIN560054 INDIA,ROAD_SEGMENT,98,2.989795918367347,2.336734693877551,25,13.034486797629016,77.55750265650428,4.59511985013459,12.14508833010427,49.744897959183675,42.4609843937575,15.333333333333336,17.580276346356328,286,MEDIUM,Regular patrol recommended
4TH MAIN ROAD PARISARA ORGANIC JUNCTION MALLESHWARAM BENGALURU KARNATAKA PIN560003 INDIA,ROAD_SEGMENT,116,1.7586206896551724,2.793103448275862,21,12.997463945689654,77.56841704224138,4.762173934797756,15.20389174024157,18.96551724137931,56.957403651115634,12.666666666666668,17.540868632220302,287,MEDIUM,Regular patrol recommended
OUTER RING ROAD SLS SERENITY APARTMENT REDDY LAYOUT KADUBISANAHALLI BENGALURU KARNATAKA PIN560103 INDIA,ROAD_SEGMENT,81,3.654320987654321,2.950617283950617,23,12.942095087171674,77.6969668457619,4.406719247264253,8.69542466163622,66.35802469135803,61.96078431372549,14.000000000000002,17.390181414131053,288,MEDIUM,Regular patrol recommended
BTP092 - Bangalore Builders Junction,JUNCTION,87,3.218390804597701,2.7701149425287355,31,12.959303213793104,77.55576176436782,4.477336814478207,9.988450545110883,55.45977011494253,56.22718052738336,19.333333333333336,17.314763140618794,289,MEDIUM,Regular patrol recommended
BELLAHALI MAIN ROAD NIRANTHARA LAYOUT DWARKA NAGAR KATTIGENAHALLI BENGALURU KARNATAKA PIN560063 INDIA,ROAD_SEGMENT,87,3.793103448275862,2.126436781609196,15,13.12152192413793,77.63112633333333,4.477336814478207,9.988450545110883,69.82758620689656,35.780933062880344,8.666666666666668,17.19589904325571,290,MEDIUM,Regular patrol recommended
BANASWADI MAIN ROAD PRESTIGE WOODLAND PARK MARUTHI SEVANAGAR BENGALURU KARNATAKA PIN560005 INDIA,ROAD_SEGMENT,126,1.0793650793650793,2.611111111111111,26,12.999404077777776,77.62494328333334,4.844187086458591,16.705573716363787,1.9841269841269826,51.17647058823531,16.0,16.921695200915494,291,MEDIUM,Regular patrol recommended
MUMBAI BENGALURU HIGHWAY CARDINAL ONE INDUSTRIAL SUBURB YESHWANTHPUR BENGALURU KARNATAKA PIN560022 INDIA,ROAD_SEGMENT,131,1.717557251908397,1.2595419847328244,25,13.027862359541984,77.54207618931298,4.882801922586371,17.412621333114387,17.938931297709924,8.244274809160308,15.333333333333336,16.902870603387186,292,MEDIUM,Regular patrol recommended
14TH MAIN ROAD DR BR AMBEDKAR LAYOUT SECTOR 3 HSR LAYOUT BENGALURU KARNATAKA PIN560102 INDIA,ROAD_SEGMENT,140,1.0642857142857145,1.4714285714285715,34,12.911112226428571,77.63808596928571,4.948759890378168,18.620328748434844,1.6071428571428625,14.97478991596639,21.333333333333336,16.87238344692715,293,MEDIUM,Regular patrol recommended
1ST MAIN ROAD RAMAIAH REDDY LAYOUT SINGASANDRA BENGALURU KARNATAKA PIN560068 INDIA,ROAD_SEGMENT,90,2.0,4.1,27,12.884398513333334,77.64166993555556,4.51085950651685,10.60225968920655,25.0,98.47058823529413,16.666666666666668,16.738670496463282,294,MEDIUM,Regular patrol recommended
OLD THARAGUPETE CROSS ROAD CHICKPET CIRCLE CHICKPETE BENGALURU KARNATAKA PIN560053 INDIA,ROAD_SEGMENT,118,1.8135593220338984,1.5,45,12.969693483050849,77.57583191440678,4.77912349311153,15.514242527982125,20.33898305084746,15.882352941176475,28.666666666666675,16.672743307862604,295,MEDIUM,Regular patrol recommended
MUMBAI BENGALURU HIGHWAY RNS SHANTHI NIVAS YESHWANTHPUR BENGALURU KARNATAKA PIN560022 INDIA,ROAD_SEGMENT,133,1.3233082706766917,1.3909774436090223,33,13.02738554661654,77.54304244135338,4.897839799950911,17.68796874923192,8.08270676691729,12.419283502874828,20.666666666666668,16.61294318455434,296,MEDIUM,Regular patrol recommended
1ST CROSS ROAD BLOCK 2 KORAMANGALA BENGALURU KARNATAKA PIN560068 INDIA,ROAD_SEGMENT,122,1.0081967213114753,3.040983606557377,15,12.92580666557377,77.61916429016394,4.812184355372417,16.119595449639725,0.2049180327868827,64.83124397299905,8.666666666666668,16.591063694973755,297,MEDIUM,Regular patrol recommended
DR BR AMBEDKAR ROAD HAL CIRCLE AIRPORT AREA BENGALURU KARNATAKA PIN560017 INDIA,ROAD_SEGMENT,120,1.925,1.9166666666666667,7,12.9588713,77.66803362499999,4.795790545596741,15.8194205610814,23.125,29.117647058823533,3.3333333333333335,16.590585468472963,298,MEDIUM,Regular patrol recommended
"BTP094 - Sri Skanda Complex, Mysore Road",JUNCTION,87,2.5977011494252875,3.2413793103448274,31,12.955809044827586,77.54618873678162,4.477336814478207,9.988450545110883,39.94252873563219,71.19675456389454,19.333333333333336,16.51151770451332,299,MEDIUM,Regular patrol recommended
RAJATHA BHAVANA ROAD DR K SHIVARAMAKARANTHA CIRCLE JALAHALLI BENGALURU KARNATAKA PIN560013 INDIA,ROAD_SEGMENT,121,1.6942148760330578,1.537190082644628,36,13.050792077685951,77.55261751900827,4.804021044733257,15.970123124725177,17.355371900826444,17.063684978123483,22.666666666666668,16.498153272102293,300,MEDIUM,Regular patrol recommended
SADDUGUNTEPALYA ROAD BHARTHI LAYOUT SADDUGUNTEPALYA BENGALURU KARNATAKA PIN560029 INDIA,ROAD_SEGMENT,136,1.1838235294117647,1.0588235294117647,46,12.930931696323528,77.60692031397059,4.919980925828125,18.09337847910507,4.595588235294118,1.8685121107266445,29.33333333333334,16.49435387901647,301,MEDIUM,Regular patrol recommended
MURPHY ROAD BEGUM MAHAL JUNCTION HALASURU BENGALURU KARNATAKA PIN560008 INDIA,ROAD_SEGMENT,94,2.393617021276596,2.8617021276595747,29,12.9751769,77.62016939042553,4.553876891600541,11.389919113724634,34.840425531914896,59.13642052565709,18.000000000000004,16.452798870454053,302,MEDIUM,Regular patrol recommended
HOSUR ROAD SALARPURIA SATTVA ALEXANDRIA TECH PARK VEERASANDRA INDUSTRIAL AREA BENGALURU KARNATAKA PIN560100 INDIA,ROAD_SEGMENT,119,1.9663865546218489,1.546218487394958,21,12.840421275697125,77.67697303208429,4.787491742782046,15.667467339459606,24.15966386554622,17.35046959960455,12.666666666666668,16.45079707143587,303,MEDIUM,Regular patrol recommended
DR RAJKUMAR PUNIYA BHOOMI ROAD BLOCK 3 NANDINI LAYOUT BENGALURU KARNATAKA PIN560096 INDIA,ROAD_SEGMENT,94,2.276595744680851,3.0319148936170213,28,13.016701380851064,77.53123557446808,4.553876891600541,11.389919113724634,31.914893617021278,64.54317897371715,17.333333333333336,16.39725026803436,304,MEDIUM,Regular patrol recommended
BELLARY ROAD VISTA PIXEL JAKKURU LAYOUT JAKKURU BENGALURU KARNATAKA PIN560064 INDIA,ROAD_SEGMENT,111,1.5855855855855856,2.4324324324324325,36,13.071781364864863,77.5929987099099,4.718498871295094,14.404190054112364,14.63963963963964,45.50079491255962,22.666666666666668,16.39568908621517,305,MEDIUM,Regular patrol recommended
KEMPAPURA MAIN ROAD ESTEEM MALL HEBBAL KEMPAPURA BENGALURU KARNATAKA PIN560024 INDIA,ROAD_SEGMENT,146,1.0410958904109588,1.1369863013698631,19,13.049411091095893,77.59336213424658,4.990432586778736,19.383366576074256,1.0273972602739712,4.351329572925067,11.333333333333334,16.393666132199726,306,MEDIUM,Regular patrol recommended
BTP146 - Domlur Water Tank,JUNCTION,122,1.139344262295082,2.1475409836065573,41,12.960501909016394,77.63876197213115,4.812184355372417,16.119595449639725,3.4836065573770503,36.4513018322083,26.000000000000007,16.3666021070599,307,MEDIUM,Regular patrol recommended
KUMBAR STREET DEVASANDRA JUNCTION KR PURAM BENGALURU KARNATAKA PIN560036 INDIA,ROAD_SEGMENT,83,3.5903614457831323,1.927710843373494,33,13.008433183132531,77.69547106506025,4.430816798843313,9.136657051102247,64.7590361445783,29.468462083628637,20.666666666666668,16.291985692854396,308,MEDIUM,Regular patrol recommended
5TH CROSS ROAD NAGAPPA BLOCK SRIRAMPURAM BENGALURU KARNATAKA PIN560021 INDIA,ROAD_SEGMENT,115,1.7304347826086957,1.9565217391304348,26,12.996499470434784,77.56309212434783,4.7535901911063645,15.046721177618616,18.26086956521739,30.383631713554987,16.0,16.182645484294383,309,MEDIUM,Regular patrol recommended
5TH CROSS ROAD RAJATH GREENS BLOCK 5 STAGE 1 HBR LAYOUT BENGALURU KARNATAKA PIN560043 INDIA,ROAD_SEGMENT,111,1.009009009009009,3.5495495495495497,19,13.034498671171171,77.62464874144143,4.718498871295094,14.404190054112364,0.22522522522522292,80.9856915739269,11.333333333333334,16.161825811175426,310,MEDIUM,Regular patrol recommended
JASMA DEVI BHAVAN ROAD RAJIV GANDHI COLONY SHIVAJI NAGAR BENGALURU KARNATAKA PIN560051 INDIA,ROAD_SEGMENT,107,1.8785046728971964,2.5233644859813085,18,12.988566676635513,77.59853592149533,4.68213122712422,13.73828910213727,21.962616822429908,48.38922484881804,10.666666666666668,16.139687539727042,311,MEDIUM,Regular patrol recommended
"BTP179 - 9th Block, 28th Main, Jayanagar",JUNCTION,80,3.95,1.825,18,12.916983268749998,77.59499624625,4.394449154672439,8.470756099127152,73.75,26.205882352941174,10.666666666666668,15.995232330282114,312,MEDIUM,Regular patrol recommended
DOMLUR INNER RING ROAD SONY WORLD JUNCTION INDIRANAGAR BENGALURU KARNATAKA PIN560008 INDIA,ROAD_SEGMENT,113,1.4336283185840708,2.008849557522124,47,12.969959000884955,77.64128595663716,4.736198448394496,14.728273879412413,10.84070796460177,32.045809474232186,30.000000000000004,15.968980373701719,313,MEDIUM,Regular patrol recommended
RK ROAD NUMBER 7 LT TECH PARK BYATARAYANAPURA BENGALURU KARNATAKA PIN560092 INDIA,ROAD_SEGMENT,116,1.6206896551724137,2.0172413793103448,21,13.068669710344828,77.59269816896553,4.762173934797756,15.20389174024157,15.517241379310342,32.31237322515213,12.666666666666668,15.96378952471523,314,MEDIUM,Regular patrol recommended
SRI SRI SRI TIRUCHI MAHASWAMIJI ROAD GOPALAN ARCADE NAYANDAHALLI BENGALURU KARNATAKA PIN560039 INDIA,ROAD_SEGMENT,114,1.956140350877193,1.5614035087719298,24,12.935545386842104,77.51800878333334,4.74493212836325,14.888189813975394,23.903508771929825,17.832817337461304,14.666666666666666,15.925876928579697,315,MEDIUM,Regular patrol recommended
BTP166 - Coffee Board Junction,JUNCTION,114,1.1666666666666667,2.3596491228070176,45,12.984938339473684,77.59433587543859,4.74493212836325,14.888189813975394,4.166666666666669,43.18885448916409,28.666666666666675,15.919994575638519,316,MEDIUM,Regular patrol recommended
EMBASSY TECH SQUARE MAIN ROAD SALARPURIA SATTVA PREMIA KADUBISANAHALLI BENGALURU KARNATAKA PIN560103 INDIA,ROAD_SEGMENT,90,2.5,2.355555555555556,43,12.93649477,77.69265300666667,4.51085950651685,10.60225968920655,37.5,43.05882352941179,27.333333333333336,15.751415594502497,317,MEDIUM,Regular patrol recommended
2ND CROSS ROAD NAGASHETTY HALLI RMV STAGE 2 BENGALURU KARNATAKA PIN560094 INDIA,ROAD_SEGMENT,120,1.5833333333333333,1.4083333333333334,31,13.047645641666666,77.57630019416666,4.795790545596741,15.8194205610814,14.583333333333332,12.970588235294123,19.333333333333336,15.729065860629827,318,MEDIUM,Regular patrol recommended
PANATHUR MAIN ROAD INDIQUBE ALPHA REDDY LAYOUT KADUBISANAHALLI BENGALURU KARNATAKA PIN560103 INDIA,ROAD_SEGMENT,68,4.161764705882353,2.6911764705882355,23,12.939227267205643,77.6960333876939,4.23410650459726,5.534840788649554,79.04411764705883,53.719723183391025,14.000000000000002,15.71827055479508,319,MEDIUM,Regular patrol recommended
HOSUR ROAD PRAMUK AQUA HEIGHTS ELECTRONIC CITY BENGALURU KARNATAKA PIN560100 INDIA,ROAD_SEGMENT,102,2.588235294117647,1.4901960784313726,20,12.84095498797697,77.67640251529767,4.634728988229636,12.87034187252447,39.70588235294118,15.570934256055368,12.0,15.645408446116463,320,MEDIUM,Regular patrol recommended
FERNS CITY ROAD DODDANEKUNDI BENGALURU KARNATAKA PIN560037 INDIA,ROAD_SEGMENT,98,2.020408163265306,2.326530612244898,40,12.97897811734694,77.69565258265307,4.59511985013459,12.14508833010427,25.510204081632647,42.13685474189676,25.333333333333336,15.640600476008188,321,MEDIUM,Regular patrol recommended
HOSUR ROAD RAMAIAH REDDY LAYOUT SINGASANDRA BENGALURU KARNATAKA PIN560068 INDIA,ROAD_SEGMENT,87,2.0,3.528735632183908,35,12.884883990804598,77.6422685954023,4.477336814478207,9.988450545110883,25.0,80.32454361054768,22.0,15.60698761661609,322,MEDIUM,Regular patrol recommended
